{"cities":[{"country":"United States","city":"Midlothian, VA","latitude":37.5061069,"city_id":33333,"longitude":-77.6490005},{"country":"United States","city":"Ridley Park, PA","latitude":39.8812236,"city_id":33343,"longitude":-75.32379929999999},{"country":"United States","city":"Johannesberg, CA","latitude":35.3727406,"city_id":33344,"longitude":-117.6347823},{"country":"United States","city":"Sylva, NC","latitude":35.3737111,"city_id":33348,"longitude":-83.22598029999999},{"country":"United States","city":"Kewwannee, IL","latitude":41.2455927,"city_id":33352,"longitude":-89.9248303},{"country":"United States","city":"Superior, WI","latitude":46.7207737,"city_id":33354,"longitude":-92.10407959999999},{"country":"United States","city":"Brewster, OH","latitude":40.707003,"city_id":33361,"longitude":-81.59817989999999},{"country":"United States","city":"Stillwater, MN","latitude":45.056004,"city_id":33371,"longitude":-92.80884429999999},{"country":"United States","city":"Greeley, CO","latitude":40.4233142,"city_id":33374,"longitude":-104.7091322},{"country":"United States","city":"Lyons, IL","latitude":41.8133651,"city_id":33376,"longitude":-87.8181128},{"country":"United States","city":"Danville, VA","latitude":36.5859718,"city_id":33377,"longitude":-79.39502279999999},{"country":"United States","city":"Rutland, VT","latitude":43.6106237,"city_id":33384,"longitude":-72.9726065},{"country":"United States","city":"Pendleton, SC","latitude":34.6517733,"city_id":33388,"longitude":-82.7837514},{"country":"United States","city":"Waverly, IA","latitude":42.7272032,"city_id":33390,"longitude":-92.4668511},{"country":"United States","city":"Hillsboro, OR","latitude":45.5228939,"city_id":33391,"longitude":-122.989827},{"country":"United States","city":"Hutchinson, MN","latitude":44.89254830000001,"city_id":33395,"longitude":-94.3692926},{"country":"United States","city":"Mundelein, IL","latitude":42.263079,"city_id":33396,"longitude":-88.00396529999999},{"country":"United States","city":"Sandpoint, ID","latitude":48.276577,"city_id":33398,"longitude":-116.553465},{"country":"United States","city":"Gridley, CA","latitude":39.3637773,"city_id":33402,"longitude":-121.6935833},{"country":"United States","city":"Vassalboro, ME","latitude":44.45888069999999,"city_id":33409,"longitude":-69.67776049999999},{"country":"United States","city":"Boulder City, NV","latitude":35.9782216,"city_id":33413,"longitude":-114.8345117},{"country":"United States","city":"Jamestown, ND","latitude":46.9105438,"city_id":33415,"longitude":-98.7084357},{"country":"United States","city":"Niagara Falls, NY","latitude":43.0962143,"city_id":33416,"longitude":-79.0377388},{"country":"United States","city":"Clinton, MS","latitude":32.3415342,"city_id":33417,"longitude":-90.3217585},{"country":"United States","city":"Big Bear Lake, CA","latitude":34.2438963,"city_id":33418,"longitude":-116.9114215},{"country":"United States","city":"Clifton Park, NY","latitude":42.844668,"city_id":33426,"longitude":-73.8183804},{"country":"United States","city":"Wadsworth, OH","latitude":41.0256101,"city_id":33430,"longitude":-81.72985190000001},{"country":"United States","city":"Woburn, MA","latitude":42.4792618,"city_id":33431,"longitude":-71.1522765},{"country":"United States","city":"Chula Vista, CA","latitude":32.6400541,"city_id":33433,"longitude":-117.0841955},{"country":"United States","city":"Huntingdon, PA","latitude":40.48479589999999,"city_id":33447,"longitude":-78.0102813},{"country":"United States","city":"West Allis, WI","latitude":43.0166806,"city_id":33457,"longitude":-88.0070315},{"country":"United States","city":"Williamstown, MA","latitude":42.7120196,"city_id":33473,"longitude":-73.20368979999999},{"country":"United States","city":"Ashburn, VA","latitude":39.0437567,"city_id":33474,"longitude":-77.4874416},{"country":"United States","city":"Indialantic, FL","latitude":28.0894599,"city_id":33476,"longitude":-80.5656079},{"country":"United States","city":"Mulvane, KS","latitude":37.474464,"city_id":33477,"longitude":-97.2439325},{"country":"United States","city":"Elkhorn, WI","latitude":42.6727927,"city_id":33481,"longitude":-88.5445447},{"country":"United States","city":"Antioch, CA","latitude":38.0049214,"city_id":33492,"longitude":-121.805789},{"country":"United States","city":"Chesterbrook, PA","city_id":33507},{"country":"United States","city":"St. Augustine, FL","latitude":29.9012437,"city_id":33514,"longitude":-81.31243409999999},{"country":"United States","city":"Staunton, VA","latitude":38.149576,"city_id":33518,"longitude":-79.0716958},{"country":"United States","city":"Flagler Beach, FL","latitude":29.4749754,"city_id":33524,"longitude":-81.1270035},{"country":"United States","city":"Chadron, NE","latitude":42.8294187,"city_id":33525,"longitude":-102.9999069},{"country":"United States","city":"Bloomfield Hills, MI","latitude":42.583645,"city_id":33547,"longitude":-83.24548829999999},{"country":"United States","city":"Blaine, WA","latitude":48.993723,"city_id":33549,"longitude":-122.7471191},{"country":"United States","city":"Riverton, UT","latitude":40.521893,"city_id":33550,"longitude":-111.9391023},{"country":"United States","city":"Frostburg, MD","latitude":39.6581424,"city_id":33559,"longitude":-78.92835699999999},{"country":"United States","city":"Gulf Breeze, FL","latitude":30.3571438,"city_id":33561,"longitude":-87.1638574},{"country":"United States","city":"Provincetown, MA","latitude":42.0584412,"city_id":33568,"longitude":-70.1786425},{"country":"United States","city":"Dalton, GA","latitude":34.7698021,"city_id":33576,"longitude":-84.9702228},{"country":"United States","city":"Round Hill, VA","latitude":39.1326051,"city_id":33577,"longitude":-77.7686051},{"country":"United States","city":"Saint Albans, VT","latitude":44.8107132,"city_id":33581,"longitude":-73.0835582},{"country":"United States","city":"Starkville, MS","latitude":33.4503998,"city_id":33582,"longitude":-88.81838719999999},{"country":"United States","city":"Milton, DE","latitude":38.7776124,"city_id":33583,"longitude":-75.3099136},{"country":"United States","city":"Middleburg, FL","city_id":33595},{"country":"United States","city":"Rock Falls, IL","latitude":41.7797533,"city_id":33596,"longitude":-89.68899669999999},{"country":"United States","city":"Franklin","latitude":36.9911656,"city_id":33598,"longitude":-79.8839701},{"country":"United States","city":"Ripon, WI","latitude":43.8422049,"city_id":33599,"longitude":-88.8359447},{"country":"United States","city":"Plainfield, IL","latitude":41.632223,"city_id":33604,"longitude":-88.2120315},{"country":"United States","city":"Evanston, IL","latitude":42.0450722,"city_id":33606,"longitude":-87.68769689999999},{"country":"United States","city":"Vacaville, CA","latitude":38.3565773,"city_id":33611,"longitude":-121.9877444},{"country":"United States","city":"Dubuque","latitude":42.5005583,"city_id":33624,"longitude":-90.66457179999999},{"country":"United States","city":"Brookings","latitude":44.3113573,"city_id":33625,"longitude":-96.79838769999999},{"country":"United States","city":"Branson, MO","latitude":36.6436731,"city_id":33626,"longitude":-93.21851439999999},{"country":"United States","city":"Fayettevill, GA","latitude":33.4487257,"city_id":33628,"longitude":-84.4549262},{"country":"United States","city":"Bloomfield, NJ","latitude":40.8067546,"city_id":33638,"longitude":-74.1854209},{"country":"United States","city":"Corona, CA","latitude":33.8752935,"city_id":33663,"longitude":-117.5664384},{"country":"United States","city":"Huntington, TX","latitude":31.2776873,"city_id":33680,"longitude":-94.576594},{"country":"United States","city":"Fountain Valley, CA","latitude":33.7091847,"city_id":33687,"longitude":-117.9536697},{"country":"United States","city":"Port Huron, MI","latitude":42.9708634,"city_id":33704,"longitude":-82.42491419999999},{"country":"United States","city":"Alpine, TX","latitude":30.3584919,"city_id":33706,"longitude":-103.6610115},{"country":"United States","city":"Leavenworth, WA","latitude":47.5962326,"city_id":33720,"longitude":-120.6614765},{"country":"United States","city":"Mount Laurel, NJ","latitude":39.934002,"city_id":33725,"longitude":-74.89099879999999},{"country":"United States","city":"Laguna Niguel, CA","city_id":33733},{"country":"United States","city":"Aliso Viejo, CA","latitude":33.5684605,"city_id":33734,"longitude":-117.7262981},{"country":"United States","city":"Park City, UT","latitude":40.6460622,"city_id":33736,"longitude":-111.4979729},{"country":"United States","city":"Ellisville, MS","latitude":31.6040538,"city_id":33753,"longitude":-89.1956142},{"country":"United States","city":"Poulsbo, WA","latitude":47.735928,"city_id":33757,"longitude":-122.6465372},{"country":"United States","city":"Ridgewood, NJ","latitude":40.9792645,"city_id":33758,"longitude":-74.11653129999999},{"country":"United States","city":"Winamac, IN","city_id":33759},{"country":"United States","city":"Tahlequah, OK","latitude":35.91537,"city_id":33762,"longitude":-94.969956},{"country":"United States","city":"Janesville, WI","latitude":42.6827885,"city_id":33763,"longitude":-89.0187222},{"country":"United States","city":"Malden, MA","latitude":42.4250964,"city_id":33775,"longitude":-71.066163},{"country":"United States","city":"Springfield, OH","latitude":39.9242266,"city_id":33776,"longitude":-83.8088171},{"country":"United States","city":"Piedmont, CA","latitude":37.8243715,"city_id":33777,"longitude":-122.231635},{"country":"United States","city":"New London, CT","latitude":41.3556539,"city_id":33778,"longitude":-72.0995209},{"country":"United States","city":"Chelsea, MA","latitude":42.3917638,"city_id":33779,"longitude":-71.0328284},{"country":"United States","city":"West Warwick, RI","latitude":41.70367110000001,"city_id":33780,"longitude":-71.5215024},{"country":"United States","city":"Dedham, MA","latitude":42.2436085,"city_id":33781,"longitude":-71.1676536},{"country":"United States","city":"Needham, MA","latitude":42.2809285,"city_id":33782,"longitude":-71.23775479999999},{"country":"United States","city":"Littleton, NH","latitude":44.3061628,"city_id":33783,"longitude":-71.7701237},{"country":"United States","city":"Pawtucket, RI","latitude":41.878711,"city_id":33784,"longitude":-71.38255579999999},{"country":"United States","city":"Farmington, CT","latitude":41.7360305,"city_id":33785,"longitude":-72.79502699999999},{"country":"United States","city":"Greenfield, MA","latitude":42.587915,"city_id":33786,"longitude":-72.5994104},{"country":"United States","city":"North Andover, MA","latitude":42.69870239999999,"city_id":33787,"longitude":-71.1350575},{"country":"United States","city":"Saugus, MA","latitude":42.4651421,"city_id":33788,"longitude":-71.0110473},{"country":"United States","city":"Bedford, MA","latitude":38.8611619,"city_id":33789,"longitude":-86.4872149},{"country":"United States","city":"Greenwich, NY","latitude":43.1374547,"city_id":33793,"longitude":-73.48872879999999},{"country":"United States","city":"Lisbon, NH","latitude":44.2133222,"city_id":33794,"longitude":-71.9109059},{"country":"United States","city":"Claremont, NH","latitude":43.3728635,"city_id":33795,"longitude":-72.33787439999999},{"country":"United States","city":"Thief River Falls, MN","latitude":48.1191353,"city_id":33808,"longitude":-96.18114729999999},{"country":"United States","city":"Madison Heights, MI","latitude":42.4858692,"city_id":33813,"longitude":-83.1052028},{"country":"United States","city":"Bloomsburg, PA","latitude":41.003698,"city_id":33814,"longitude":-76.4549457},{"country":"United States","city":"Newton Falls, OH","latitude":41.18839,"city_id":33821,"longitude":-80.97814679999999},{"country":"United States","city":"Lake Havasu City, AZ","latitude":34.483901,"city_id":33827,"longitude":-114.3224548},{"country":"United States","city":"Fort Madison, IA","latitude":40.6297634,"city_id":33828,"longitude":-91.31453499999999},{"country":"United States","city":"Clinton, NJ","latitude":40.6367682,"city_id":33832,"longitude":-74.90988999999999},{"country":"United States","city":"Kenmore, WA","latitude":47.7583576,"city_id":33838,"longitude":-122.2496863},{"country":"United States","city":"Haverhill, MA","latitude":42.7762015,"city_id":33844,"longitude":-71.0772796},{"country":"United States","city":"Good Hope, IL","latitude":40.5578178,"city_id":33851,"longitude":-90.6734649},{"country":"United States","city":"Mechanic Falls, ME","latitude":44.1117418,"city_id":33857,"longitude":-70.3917985},{"country":"United States","city":"Arden-Arcade, CA","latitude":38.6008071,"city_id":33859,"longitude":-121.3770336},{"country":"United States","city":"Forest City, NC","latitude":35.3340108,"city_id":33872,"longitude":-81.8651028},{"country":"United States","city":"O'Fallon, MO","latitude":38.8106075,"city_id":33875,"longitude":-90.69984769999999},{"country":"United States","city":"Albemarle, NC","latitude":35.3501426,"city_id":33887,"longitude":-80.2000578},{"country":"United States","city":"Citrus Heights, CA","latitude":38.7071247,"city_id":33891,"longitude":-121.2810611},{"country":"United States","city":"Port Angeles","latitude":48.118146,"city_id":33894,"longitude":-123.4307413},{"country":"United States","city":"Dubuque, IA","latitude":42.5005583,"city_id":33898,"longitude":-90.66457179999999},{"country":"United States","city":"Wasilla, AK","latitude":61.5813889,"city_id":33905,"longitude":-149.4394444},{"country":"United States","city":"Olive Branch, MS","latitude":34.9617604,"city_id":33906,"longitude":-89.8295315},{"country":"United States","city":"Bartlesville, OK","latitude":36.7473114,"city_id":33911,"longitude":-95.98081789999999},{"country":"United States","city":"Bartlett, TN","latitude":35.2045328,"city_id":33916,"longitude":-89.8739753},{"country":"United States","city":"Hunt Valley, MD","latitude":39.4900013,"city_id":33921,"longitude":-76.65850739999999},{"country":"United States","city":"Rockdale, TX","latitude":30.6554759,"city_id":33924,"longitude":-97.00137439999999},{"country":"United States","city":"Rio Rancho, NM","latitude":35.2327544,"city_id":33944,"longitude":-106.6630437},{"country":"United States","city":"Gaithersburg, MD","latitude":39.1434406,"city_id":33945,"longitude":-77.2013705},{"country":"United States","city":"Lincolnville, ME","latitude":44.2811973,"city_id":33948,"longitude":-69.0087018},{"country":"United States","city":"Rockford, MI","latitude":43.1200272,"city_id":33952,"longitude":-85.5600316},{"country":"United States","city":"Carlisle, PA","latitude":40.2010241,"city_id":33955,"longitude":-77.20027449999999},{"country":"United States","city":"St Joseph, MI","latitude":42.0938577,"city_id":33960,"longitude":-86.4895463},{"country":"United States","city":"Lanoka Harbor, NJ","latitude":39.8650878,"city_id":33967,"longitude":-74.1573586},{"country":"United States","city":"Titusville, FL","latitude":28.6122187,"city_id":33970,"longitude":-80.8075537},{"country":"United States","city":"Hastings, NE","latitude":40.5862583,"city_id":33974,"longitude":-98.38987259999999},{"country":"United States","city":"Newton, NJ","latitude":41.0581527,"city_id":33976,"longitude":-74.7526651},{"country":"United States","city":"Chillicothe, MO","latitude":39.7952946,"city_id":33977,"longitude":-93.5524358},{"country":"United States","city":"Chanute, KS","latitude":37.6792135,"city_id":34009,"longitude":-95.4572034},{"country":"United States","city":"Long Island, NY","latitude":40.8517821,"city_id":34013,"longitude":-73.099185269027},{"country":"United States","city":"El Cajon, CA","latitude":32.7947731,"city_id":34019,"longitude":-116.9625269},{"country":"United States","city":"Cedartown, GA","latitude":34.0112715,"city_id":34029,"longitude":-85.25658229999999},{"country":"United States","city":"Sewickley, PA","latitude":40.5364846,"city_id":34040,"longitude":-80.1844243},{"country":"United States","city":"Oswego, NY","latitude":43.4553461,"city_id":34046,"longitude":-76.5104973},{"country":"United States","city":"Lewistown, MT","latitude":47.0624732,"city_id":34047,"longitude":-109.428238},{"country":"United States","city":"Ambler, PA","latitude":40.1545535,"city_id":34048,"longitude":-75.22156509999999},{"country":"United States","city":"Bainbridge, GA","latitude":30.9037995,"city_id":34049,"longitude":-84.57546990000002},{"country":"United States","city":"Basking Ridge, NJ","latitude":40.7066174,"city_id":34051,"longitude":-74.5493284},{"country":"United States","city":"Avon, CT","city_id":34052},{"country":"United States","city":"Mechanicsburg, PA","latitude":40.2142565,"city_id":34053,"longitude":-77.0085876},{"country":"United States","city":"Mansfield, TX","latitude":32.5631924,"city_id":34054,"longitude":-97.1416768},{"country":"United States","city":"Sayville, NY","city_id":34055},{"country":"United States","city":"Harrogate, TN","latitude":36.5823046,"city_id":34057,"longitude":-83.65685789999999},{"country":"United States","city":"Howard, OH","latitude":40.4077183,"city_id":34058,"longitude":-82.3263709},{"country":"United States","city":"Nantucket, MA","latitude":41.2834704,"city_id":34059,"longitude":-70.099451},{"country":"United States","city":"Morehead, KY","latitude":38.1839705,"city_id":34060,"longitude":-83.4326841},{"country":"United States","city":"Lake Forest, CA","latitude":33.6469437,"city_id":34061,"longitude":-117.6861023},{"country":"United States","city":"Keller, TX","latitude":32.9341893,"city_id":34062,"longitude":-97.229298},{"country":"United States","city":"Camarillo, CA","latitude":34.2163937,"city_id":34064,"longitude":-119.0376023},{"country":"United States","city":"Garden City, MI","latitude":42.3255928,"city_id":34065,"longitude":-83.3310422},{"country":"United States","city":"Brier, WA","latitude":47.7845419,"city_id":34067,"longitude":-122.2742948},{"country":"United States","city":"Washington, MO, United States","latitude":38.55810719999999,"city_id":34068,"longitude":-91.01208779999999},{"country":"United States","city":"Ruidoso, NM","latitude":33.3672525,"city_id":34070,"longitude":-105.6588485},{"country":"United States","city":"Montecito, CA","latitude":34.4366626,"city_id":34071,"longitude":-119.6320753},{"country":"United States","city":"Middletown, OH","latitude":39.5150576,"city_id":34073,"longitude":-84.39827629999999},{"country":"United States","city":"Clinton Township, MI","latitude":42.5868882,"city_id":34074,"longitude":-82.9195514},{"country":"United States","city":"Gainesville, VA","latitude":38.7956706,"city_id":34075,"longitude":-77.6138802},{"country":"United States","city":"Glenwood Springs, CO","latitude":39.5505376,"city_id":34076,"longitude":-107.3247762},{"country":"United States","city":"Dover, OH","latitude":40.5206198,"city_id":34077,"longitude":-81.4740054},{"country":"United States","city":"Flemington, NJ","latitude":40.5123258,"city_id":34078,"longitude":-74.85933179999999},{"country":"United States","city":"Niantic, CT","latitude":41.3253756,"city_id":34079,"longitude":-72.1931338},{"country":"United States","city":"Hinsdale, IL","latitude":41.8008642,"city_id":34080,"longitude":-87.9370052},{"country":"United States","city":"Vernon, NJ","city_id":34081},{"country":"United States","city":"West Lafayette, IN","latitude":40.4258686,"city_id":34082,"longitude":-86.90806549999999},{"country":"United States","city":"Selden, NY","city_id":34083},{"country":"United States","city":"Cartersville, GA","latitude":34.1650972,"city_id":34085,"longitude":-84.7999382},{"country":"United States","city":"Iowa Falls, IA","latitude":42.51988679999999,"city_id":34087,"longitude":-93.26457409999999},{"country":"United States","city":"Lake Elsinore, CA","latitude":33.6680772,"city_id":34090,"longitude":-117.3272615},{"country":"United States","city":"Ada, OK","latitude":34.774531,"city_id":34092,"longitude":-96.6783449},{"country":"United States","city":"Hoffman Estates, IL","latitude":42.0629915,"city_id":34093,"longitude":-88.12271989999999},{"country":"United States","city":"Worland, WY","latitude":44.01690139999999,"city_id":34095,"longitude":-107.9553721},{"country":"United States","city":"Toms River, NJ","latitude":39.9537359,"city_id":34096,"longitude":-74.1979576},{"country":"United States","city":"Tecumseh, OK","latitude":35.2578498,"city_id":34097,"longitude":-96.9366888},{"country":"United States","city":"Satellite Beach, FL","latitude":28.1761233,"city_id":34098,"longitude":-80.59005189999999},{"country":"United States","city":"Mesquite, NV","latitude":36.80553099999999,"city_id":34099,"longitude":-114.06719},{"country":"United States","city":"Centerville, UT","city_id":34100},{"country":"United States","city":"Muncie, IN","latitude":40.1933767,"city_id":34101,"longitude":-85.3863599},{"country":"United States","city":"Cedarhurst, NY","latitude":40.6228819,"city_id":34102,"longitude":-73.7242983},{"country":"United States","city":"Marshall, IL","latitude":39.3914252,"city_id":34103,"longitude":-87.6936384},{"country":"United States","city":"Spearville, KS","latitude":37.8500191,"city_id":34104,"longitude":-99.75679319999999},{"country":"United States","city":"Wheaton, IL","latitude":41.8661403,"city_id":34110,"longitude":-88.1070127},{"country":"United States","city":"Cedarburg, WI","latitude":43.2966716,"city_id":34112,"longitude":-87.9875898},{"country":"United States","city":"Woodstock, VA","latitude":38.8817784,"city_id":34113,"longitude":-78.50584289999999},{"country":"United States","city":"Odessa, FL","latitude":28.1793926,"city_id":34114,"longitude":-82.5579537},{"country":"United States","city":"Cadiz, KY","latitude":36.8650496,"city_id":34121,"longitude":-87.835295},{"country":"United States","city":"Tyngsborough","latitude":42.6766696,"city_id":34124,"longitude":-71.4244224},{"country":"United States","city":"Cannon Falls, MN","latitude":44.5069113,"city_id":34127,"longitude":-92.905484},{"country":"United States","city":"Farmingdale, NY","latitude":40.7325997,"city_id":34129,"longitude":-73.4454009},{"country":"United States","city":"New Richmond, WI","latitude":45.1230213,"city_id":34131,"longitude":-92.5365865},{"country":"United States","city":"Discovery Bay, CA","latitude":37.9085357,"city_id":34133,"longitude":-121.6002291},{"country":"United States","city":"Spring Hill, TN","latitude":35.751179,"city_id":34135,"longitude":-86.9300023},{"country":"United States","city":"California, MD","latitude":38.3004029,"city_id":34156,"longitude":-76.5074542},{"country":"United States","city":"New Eagle, PA","latitude":40.2078486,"city_id":34159,"longitude":-79.9469943},{"country":"United States","city":"Barnstable, MA","latitude":41.7003208,"city_id":34164,"longitude":-70.3002024},{"country":"United States","city":"Dixon, IL","latitude":41.8389213,"city_id":34168,"longitude":-89.47954779999999},{"country":"United States","city":"Levittown, PA","latitude":40.1551096,"city_id":34170,"longitude":-74.8287747},{"country":"United States","city":"Acton, MA","latitude":42.4850931,"city_id":34177,"longitude":-71.43284},{"country":"United States","city":"Magnolia, AR","city_id":34179},{"country":"United States","city":"Greenwood, IN","latitude":39.6136578,"city_id":34181,"longitude":-86.10665259999999},{"country":"United States","city":"La Grange Park, IL","latitude":41.8347535,"city_id":34193,"longitude":-87.86172599999999},{"country":"United States","city":"Brentwood, TN","latitude":36.0331164,"city_id":34213,"longitude":-86.78277720000001},{"country":"United States","city":"Port St Joe, FL","latitude":29.8118757,"city_id":34215,"longitude":-85.30297399999999},{"country":"United States","city":"Beverly, MA","latitude":42.5584283,"city_id":34216,"longitude":-70.880049},{"country":"United States","city":"Gunnison, CO","latitude":38.5458246,"city_id":34220,"longitude":-106.9253207},{"country":"United States","city":"High Ridge, MO","latitude":38.4589432,"city_id":34222,"longitude":-90.5365126},{"country":"United States","city":"Guadalajara","latitude":20.6734435,"city_id":34231,"longitude":-103.3669925},{"country":"United States","city":"Upper Marlboro, MD","latitude":38.8159473,"city_id":34238,"longitude":-76.74969089999999},{"country":"United States","city":"Hanscom AFB, MA","latitude":42.45723100000001,"city_id":34240,"longitude":-71.2766852},{"country":"United States","city":"Seagoville, TX","latitude":32.6395776,"city_id":34245,"longitude":-96.53832279999999},{"country":"United States","city":"Canoga Park, CA","latitude":34.208254,"city_id":34249,"longitude":-118.6058609},{"country":"United States","city":"Lock Haven, PA","city_id":34252},{"country":"United States","city":"Fairplay, CO","latitude":39.2247125,"city_id":34254,"longitude":-106.0019618},{"country":"United States","city":"Lunenburg, MA","latitude":42.5945273,"city_id":34259,"longitude":-71.7245035},{"country":"United States","city":"Shelby, NC","latitude":35.2923513,"city_id":34260,"longitude":-81.5356463},{"country":"United States","city":"Snellville, GA","latitude":33.857328,"city_id":34262,"longitude":-84.0199108},{"country":"United States","city":"Spanish Fork, UT","latitude":40.114955,"city_id":34272,"longitude":-111.654923},{"country":"United States","city":"Pittsfield, IL","latitude":39.6078254,"city_id":34275,"longitude":-90.8051289},{"country":"United States","city":"Pooler, GA","latitude":32.115481,"city_id":34280,"longitude":-81.2470574},{"country":"United States","city":"Rincon, GA","latitude":32.2947732,"city_id":34281,"longitude":-81.2353612},{"country":"United States","city":"Elizabeth City, NC","latitude":36.2946008,"city_id":34289,"longitude":-76.2510461},{"country":"United States","city":"Germantown, WI","latitude":43.2286174,"city_id":34294,"longitude":-88.1103691},{"country":"United States","city":"Harrison, AR","latitude":36.2297936,"city_id":34295,"longitude":-93.1076765},{"country":"United States","city":"Richland, WA","latitude":46.2856907,"city_id":34296,"longitude":-119.2844621},{"country":"United States","city":"Yardley, PA","latitude":40.245664,"city_id":34300,"longitude":-74.8459972},{"country":"United States","city":"Gresham, OR","latitude":45.5059203,"city_id":34311,"longitude":-122.4486119},{"country":"United States","city":"Perry, GA","latitude":32.4582065,"city_id":34312,"longitude":-83.7315723},{"country":"United States","city":"Mesquite, TX","latitude":32.76679550000001,"city_id":34318,"longitude":-96.5991593},{"country":"United States","city":"Foster City, CA","city_id":34320},{"country":"United States","city":"Newnan, GA","latitude":33.3806716,"city_id":34324,"longitude":-84.79965729999999},{"country":"United States","city":"Westcliffe, CO","latitude":38.1347219,"city_id":34325,"longitude":-105.4658353},{"country":"United States","city":"Cave Creek, AZ","latitude":33.8333716,"city_id":34326,"longitude":-111.9507042},{"country":"United States","city":"Kent, OH","city_id":34328},{"country":"United States","city":"Effingham, IL","city_id":34329},{"country":"United States","city":"Stockholm, ME","latitude":47.0422642,"city_id":34330,"longitude":-68.1394756},{"country":"United States","city":"Willoughby, OH","latitude":41.6397696,"city_id":34331,"longitude":-81.4065011},{"country":"United States","city":"Hopkins, MN","latitude":44.9260794,"city_id":34332,"longitude":-93.4044187},{"country":"United States","city":"Fowler, IN","latitude":40.6167044,"city_id":34333,"longitude":-87.3208518},{"country":"United States","city":"Beach park, IL","latitude":42.4222435,"city_id":34334,"longitude":-87.85729549999999},{"country":"United States","city":"Bethel, AK","latitude":60.7922222,"city_id":34335,"longitude":-161.7558334},{"country":"United States","city":"Downey, CA","latitude":33.9401088,"city_id":34336,"longitude":-118.1331593},{"country":"United States","city":"Catonsville, MD","latitude":39.2720509,"city_id":34337,"longitude":-76.73191609999999},{"country":"United States","city":"Blackfoot, ID","latitude":43.19047090000001,"city_id":34338,"longitude":-112.3449773},{"country":"United States","city":"Farmington, UT","latitude":40.9804999,"city_id":34339,"longitude":-111.8874392},{"country":"United States","city":"Eastsound, WA","latitude":48.696654,"city_id":34341,"longitude":-122.9061068},{"country":"United States","city":"Lakewood Township, NJ","latitude":40.08212899999999,"city_id":34350,"longitude":-74.2097014},{"country":"United States","city":"Edmond, OK","latitude":35.6528323,"city_id":34359,"longitude":-97.47809540000002},{"country":"United States","city":"Walden, NY","latitude":41.5612048,"city_id":34363,"longitude":-74.18848059999999},{"country":"United States","city":"Buckeye, AZ","city_id":34368},{"country":"United States","city":"Dayton, NV","latitude":39.2371353,"city_id":34376,"longitude":-119.5929521},{"country":"United States","city":"Moberly, MO","latitude":39.4183689,"city_id":34378,"longitude":-92.43823669999999},{"country":"United States","city":"Putnam, CT","latitude":41.90460119999999,"city_id":34384,"longitude":-71.8689917},{"country":"United States","city":"Tipton, CA","latitude":36.0593973,"city_id":34389,"longitude":-119.3120577},{"country":"United States","city":"Winslow, AZ","city_id":34391},{"country":"United States","city":"Huntsville, TX","latitude":30.7235263,"city_id":34393,"longitude":-95.55077709999999},{"country":"United States","city":"Saint Charles, IL","latitude":41.9141945,"city_id":34396,"longitude":-88.3086867},{"country":"United States","city":"Parkville, MD","city_id":34405},{"country":"United States","city":"Evans, GA","latitude":33.5337464,"city_id":34406,"longitude":-82.1306747},{"country":"United States","city":"Kingston, MA","latitude":41.9932752,"city_id":34407,"longitude":-70.7284785},{"country":"United States","city":"Cheboygan, MI","latitude":45.64695630000001,"city_id":34412,"longitude":-84.4744795},{"country":"United States","city":"Garberville, CA","latitude":40.1000828,"city_id":34413,"longitude":-123.7949199},{"country":"United States","city":"Dwight, IL","latitude":41.0944767,"city_id":34418,"longitude":-88.42505969999999},{"country":"United States","city":"Farmingville, NY","latitude":40.8312096,"city_id":34419,"longitude":-73.029552},{"country":"United States","city":"Wylie, TX","latitude":33.0151201,"city_id":34420,"longitude":-96.5388789},{"country":"United States","city":"Sinclairville, NY","latitude":42.2639471,"city_id":34421,"longitude":-79.2586563},{"country":"United States","city":"Telford, PA","city_id":34423},{"country":"United States","city":"Dublin, TX","latitude":32.085143,"city_id":34425,"longitude":-98.3419882},{"country":"United States","city":"Tewksbury, MA","city_id":34448},{"country":"United States","city":"Keene, NH","latitude":42.933692,"city_id":34449,"longitude":-72.2781409},{"country":"United States","city":"Conneaut, OH","latitude":41.9475551,"city_id":34450,"longitude":-80.5542409},{"country":"United States","city":"Coventry, RI","latitude":41.6885978,"city_id":34451,"longitude":-71.5642076},{"country":"United States","city":"Brownsburg, IN","latitude":39.8433769,"city_id":34453,"longitude":-86.39777350000001},{"country":"United States","city":"Corvallis, OR","latitude":44.5645659,"city_id":34457,"longitude":-123.2620435},{"country":"United States","city":"Covington, LA","latitude":30.4754702,"city_id":34459,"longitude":-90.1009108},{"country":"United States","city":"Riverdale, NJ","latitude":40.9939865,"city_id":34464,"longitude":-74.3034823},{"country":"United States","city":"Seal Beach, CA","latitude":33.7414085,"city_id":34465,"longitude":-118.1047682},{"country":"United States","city":"Eagle River, AK","latitude":61.3293186,"city_id":34466,"longitude":-149.56805},{"country":"United States","city":"Highland Charter Township, MI","latitude":42.6380014,"city_id":34476,"longitude":-83.6175677},{"country":"United States","city":"Harpers Ferry, WV","latitude":39.3253786,"city_id":34479,"longitude":-77.7388818},{"country":"United States","city":"Jacksonville, AL","latitude":33.8137125,"city_id":34481,"longitude":-85.76135359999999},{"country":"United States","city":"Paris, KY","latitude":38.2097987,"city_id":34485,"longitude":-84.2529869},{"country":"United States","city":"Milwaukie, OR","latitude":45.4462305,"city_id":34489,"longitude":-122.6392606},{"country":"United States","city":"Elizabethton, TN","latitude":36.3487196,"city_id":34494,"longitude":-82.21068760000001},{"country":"United States","city":"Mount Pleasant, TX","latitude":33.1567863,"city_id":34509,"longitude":-94.96826899999999},{"country":"United States","city":"Hot Springs, AR","latitude":34.5037004,"city_id":34513,"longitude":-93.0551795},{"country":"United States","city":"South Beloit, Il","city_id":34517},{"country":"United States","city":"Hell, MI","city_id":34519},{"country":"United States","city":"Pottsville, PA","latitude":40.6856456,"city_id":34522,"longitude":-76.195499},{"country":"United States","city":"Quincy, IL","latitude":39.9356016,"city_id":34523,"longitude":-91.4098726},{"country":"United States","city":"Brentwood, CA","latitude":37.931868,"city_id":34526,"longitude":-121.6957863},{"country":"United States","city":"Marion, IL","latitude":37.7306054,"city_id":34529,"longitude":-88.9331256},{"country":"United States","city":"Largo, FL","latitude":27.9094665,"city_id":34534,"longitude":-82.7873244},{"country":"United States","city":"Ironton, OH","latitude":38.5367471,"city_id":34545,"longitude":-82.6829406},{"country":"United States","city":"West Orange, NJ","latitude":40.7985699,"city_id":34550,"longitude":-74.23908279999999},{"country":"United States","city":"Pinedale, WY","latitude":42.8678809,"city_id":34554,"longitude":-109.8633501},{"country":"United States","city":"Los Santos, NV","latitude":36.2543026,"city_id":34557,"longitude":-115.2215766},{"country":"United States","city":"Rome, GA","latitude":34.257038,"city_id":34559,"longitude":-85.1646726},{"country":"United States","city":"Wenatchee, WA","latitude":47.4234599,"city_id":34563,"longitude":-120.3103494},{"country":"United States","city":"Denison, IA","latitude":42.024988,"city_id":34564,"longitude":-95.3588867},{"country":"United States","city":"Kansas City, KS","latitude":39.106666666667,"city_id":34571,"longitude":-94.676388888889},{"country":"United States","city":"Commerce, MI","latitude":42.5750853,"city_id":34573,"longitude":-83.48823469999999},{"country":"United States","city":"Helena, AR","latitude":34.5291,"city_id":34574,"longitude":-90.58999999999999},{"country":"United States","city":"Poplar Bluff, MO","latitude":36.7569994,"city_id":34575,"longitude":-90.392888},{"country":"United States","city":"Attleboro, MA","city_id":34584},{"country":"United States","city":"Gilbert, AZ","latitude":33.3528264,"city_id":34585,"longitude":-111.789027},{"country":"United States","city":"Ortonville, MI","latitude":42.8522506,"city_id":34587,"longitude":-83.4430002},{"country":"United States","city":"Breckenridge,TX","latitude":32.7556768,"city_id":34608,"longitude":-98.90228979999999},{"country":"United States","city":"Wickett, TX","latitude":31.5701328,"city_id":34609,"longitude":-103.0009898},{"country":"United States","city":"Everett, MA","latitude":42.40843,"city_id":34610,"longitude":-71.0536625},{"country":"United States","city":"Ho-Ho-Kus, NJ","city_id":34611},{"country":"United States","city":"Eatontown, NJ","latitude":40.2962222,"city_id":34620,"longitude":-74.0509725},{"country":"United States","city":"Wailuku, HI","latitude":20.8911111,"city_id":34626,"longitude":-156.5047222},{"country":"United States","city":"Townsend, MT","city_id":34639},{"country":"United States","city":"St. Cloud, MN","latitude":45.553888888889,"city_id":34645,"longitude":-94.170277777778},{"country":"United States","city":"Safety Harbor, FL","latitude":27.9908529,"city_id":34659,"longitude":-82.6931553},{"country":"United States","city":"Garden City, NY","latitude":40.7267682,"city_id":34660,"longitude":-73.6342954},{"country":"United States","city":"Cowpens, SC","latitude":35.0167918,"city_id":34664,"longitude":-81.8039916},{"country":"United States","city":"Elkton, VA","latitude":38.4079042,"city_id":34665,"longitude":-78.6236277},{"country":"United States","city":"Meridian, MS","latitude":32.3643098,"city_id":34667,"longitude":-88.703656},{"country":"United States","city":"Lemon Grove, CA","latitude":32.7425516,"city_id":34673,"longitude":-117.0314172},{"country":"United States","city":"Arcadia, CA","latitude":34.1397292,"city_id":34688,"longitude":-118.0353449},{"country":"United States","city":"Alameda, CA","latitude":37.7652065,"city_id":34698,"longitude":-122.2416355},{"country":"United States","city":"Northport, AL","latitude":33.229007,"city_id":34708,"longitude":-87.5772293},{"country":"United States","city":"Jefferson City, MO","latitude":38.57670170000001,"city_id":34709,"longitude":-92.1735164},{"country":"United States","city":"Gastonia, NC","latitude":35.262082,"city_id":34711,"longitude":-81.18730049999999},{"country":"United States","city":"Springfield, VT","latitude":43.2984078,"city_id":34723,"longitude":-72.4823117},{"country":"United States","city":"Willow Grove, PA","city_id":34724},{"country":"United States","city":"Sugar Land, TX","latitude":29.6196787,"city_id":34731,"longitude":-95.6349463},{"country":"United States","city":"Colton, CA","latitude":34.0739016,"city_id":34733,"longitude":-117.3136547},{"country":"United States","city":"Lancaster, SC","latitude":34.7204257,"city_id":34753,"longitude":-80.7709014},{"country":"United States","city":"Framingham, MA","latitude":42.279286,"city_id":34755,"longitude":-71.4161565},{"country":"United States","city":"Anthem, AZ","city_id":34760},{"country":"United States","city":"Truckee, CA","city_id":34767},{"country":"United States","city":"Elkland, PA","latitude":41.9861838,"city_id":34771,"longitude":-77.3108127},{"country":"United States","city":"Elmira, NY","latitude":42.0897965,"city_id":34781,"longitude":-76.8077338},{"country":"United States","city":"Grover Beach, CA","latitude":35.1216424,"city_id":34813,"longitude":-120.6212821},{"country":"United States","city":"Roxboro, NC","latitude":36.3937519,"city_id":34816,"longitude":-78.982788},{"country":"United States","city":"Williamsburg, KY","latitude":36.7434169,"city_id":34825,"longitude":-84.15965609999999},{"country":"United States","city":"Croydon, PA","latitude":40.08733290000001,"city_id":34826,"longitude":-74.9034996},{"country":"United States","city":"Pleasant Hill, CA","city_id":34827},{"country":"United States","city":"Knightdale, NC","latitude":35.7876515,"city_id":34832,"longitude":-78.4805563},{"country":"United States","city":"Auburn, CA","latitude":38.8965654,"city_id":34838,"longitude":-121.0768901},{"country":"United States","city":"Gatlinburg, TN","latitude":35.714259,"city_id":34840,"longitude":-83.5101638},{"country":"United States","city":"Burlington, MA","city_id":34842},{"country":"United States","city":"Leesburg, VA","city_id":34844},{"country":"United States","city":"Fall River, MA","latitude":41.7014912,"city_id":34846,"longitude":-71.1550451},{"country":"United States","city":"Apple Valley, MN","latitude":44.7319094,"city_id":34853,"longitude":-93.21772000000001},{"country":"United States","city":"Pawling, NY","city_id":34863},{"country":"United States","city":"Loganville, GA","latitude":33.8389977,"city_id":34865,"longitude":-83.90073819999999},{"country":"United States","city":"Alliance, OH","latitude":40.9153362,"city_id":34869,"longitude":-81.10593089999999},{"country":"United States","city":"Cumberland, ME","latitude":43.796573,"city_id":34875,"longitude":-70.2585205},{"country":"United States","city":"Metuchen, NJ","latitude":40.5431598,"city_id":34884,"longitude":-74.3632049},{"country":"United States","city":"South Portland, ME","city_id":34887},{"country":"United States","city":"Crawfordsville, IN","latitude":40.0411536,"city_id":34894,"longitude":-86.87445160000001},{"country":"United States","city":"Jerseyville, IL","city_id":34901},{"country":"United States","city":"Rome, NY","latitude":43.2128473,"city_id":34904,"longitude":-75.4557303},{"country":"United States","city":"Waunakee, WI","city_id":34916},{"country":"United States","city":"Maysville, KY","city_id":34917},{"country":"United States","city":"Escondido, CA","latitude":33.1192068,"city_id":34924,"longitude":-117.086421},{"country":"United States","city":"Bisbee, AZ","city_id":34929},{"country":"United States","city":"Forney, TX","city_id":34940},{"country":"United States","city":"Laporte, CO","latitude":40.62637110000001,"city_id":34943,"longitude":-105.1377578},{"country":"United States","city":"Southaven, MS","city_id":34948},{"country":"United States","city":"Columbus, NE","latitude":41.43029730000001,"city_id":34949,"longitude":-97.3593904},{"country":"United States","city":"Villa Rica, GA","city_id":34954},{"country":"United States","city":"Rosholt, SD","city_id":34964},{"country":"United States","city":"Burbank, CA","city_id":34970},{"country":"United States","city":"gideon mo","latitude":36.4520057,"city_id":34987,"longitude":-89.9192558},{"country":"United States","city":"Washington, NC","city_id":35004},{"country":"United States","city":"Winfield, AL","latitude":33.928993,"city_id":35006,"longitude":-87.8172457},{"country":"United States","city":"Vidalia, GA","latitude":32.2176855,"city_id":35019,"longitude":-82.4134614},{"country":"United States","city":"Brookhaven, GA","city_id":35039},{"country":"United States","city":"Leander, TX","latitude":30.5788055,"city_id":35040,"longitude":-97.8530686},{"country":"United States","city":"Kingston, WA","latitude":47.7987072,"city_id":35046,"longitude":-122.4981921},{"country":"United States","city":"Pleasantville, NY","city_id":35049},{"country":"United States","city":"Stuart, FL","city_id":35053},{"country":"United States","city":"Baraboo, WI","city_id":35066},{"country":"United States","city":"Thiensville, WI","city_id":35104},{"country":"United States","city":"Floyd, VA","city_id":35116},{"country":"United States","city":"San Leandro, CA","city_id":35123},{"country":"United States","city":"Vista, CA","city_id":35134},{"country":"United States","city":"Parsons, KS","city_id":35136},{"country":"United States","city":"West Monroe, LA","city_id":35141},{"country":"United States","city":"Bothell, WA","city_id":35145},{"country":"United States","city":"Oxford, NC","city_id":35147},{"country":"United States","city":"Monrovia, CA","city_id":35151},{"country":"United States","city":"Wilmington, OH","city_id":35154},{"country":"United States","city":"Kennesaw, GA","city_id":35157},{"country":"United States","city":"Edgewood, KY","city_id":35159},{"country":"United States","city":"Williamston, NC","city_id":35160},{"country":"United States","city":"Woodland Park, CO","city_id":35161},{"country":"United States","city":"Lander, WY","city_id":35187},{"country":"United States","city":"Tullahoma, TN","city_id":35190},{"country":"United States","city":"Greenville, PA","city_id":35191},{"country":"United States","city":"Galax, VA","city_id":35193},{"country":"United States","city":"Temple Hills, MD","city_id":35199},{"country":"United States","city":"Tracy, CA","city_id":35215},{"country":"United States","city":"Palestine, TX","city_id":35217},{"country":"United States","city":"Severna Park, MD","city_id":35224},{"country":"United States","city":"Clarksville, IN","city_id":35228},{"country":"United States","city":"Yellow Springs, OH","city_id":35236},{"country":"United States","city":"Benton, LA","city_id":35245},{"country":"United States","city":"Georgetown, KY","city_id":35257},{"country":"United States","city":"Weston, FL","city_id":35271},{"country":"United States","city":"Evanston, WY","city_id":35272},{"country":"United States","city":"Lemont, IL","city_id":35273},{"country":"United States","city":"Payson, UT","city_id":35274},{"country":"United States","city":"Canyon Lake, CA","city_id":35275},{"country":"United States","city":"Burnsville, MN","city_id":35293},{"country":"United States","city":"Granby, CT","city_id":35316},{"country":"United States","city":"Los Alamos, NM","city_id":35317},{"country":"United States","city":"Bremen, KY","city_id":35319},{"country":"United States","city":"Greenfield, IN","city_id":35322},{"country":"United States","city":"Wethersfield, CT","city_id":35323},{"country":"United States","city":"Manchester, TN","city_id":35328},{"country":"United States","city":"Plainsboro, NJ","city_id":35330},{"country":"United States","city":"Rochester, PA","city_id":35355},{"country":"United States","city":"Downers Grove, IL","city_id":35374},{"country":"United States","city":"Valley View, TX","city_id":35375},{"country":"United States","city":"Susanville, CA","city_id":35378},{"country":"United States","city":"Camdenton, MO","city_id":35381},{"country":"United States","city":"Vernon Hills, IL","city_id":35392},{"country":"United States","city":"Castro Valley, CA","city_id":35396},{"country":"United States","city":"Mount Pleasant, SC","latitude":32.7940651,"city_id":35404,"longitude":-79.8625851},{"country":"United States","city":"Whitwell, TN","city_id":35408},{"country":"United States","city":"Granbury, TX","city_id":35415},{"country":"United States","city":"Hannibal, MO","city_id":35417},{"country":"United States","city":"Orange beach, AL","city_id":35424},{"country":"United States","city":"Bernalillo, NM","city_id":35427},{"country":"United States","city":"Charles Town, WV","city_id":35431},{"country":"United States","city":"Abington, MA","city_id":35434},{"country":"United States","city":"North Wales, PA","city_id":35459},{"country":"United States","city":"Chariton, IA","city_id":35460},{"country":"United States","city":"Chillicothe, OH","city_id":35474},{"country":"United States","city":"East Hampton, NY","city_id":35477},{"country":"United States","city":"Beaufort, SC","city_id":35482},{"country":"United States","city":"Smyrna, GA","city_id":35487},{"country":"United States","city":"Franklin, NC","city_id":35489},{"country":"United States","city":"Cooper City, FL","city_id":35494},{"country":"United States","city":"Palmetto, FL","city_id":35495},{"country":"United States","city":"Martin, TN","city_id":35497},{"country":"United States","city":"Fort Lee, NJ","city_id":35506},{"country":"United States","city":"Greene, NY","city_id":35512},{"country":"United States","city":"Simpsonville, SC","city_id":35527},{"country":"United States","city":"Worthington, OH","city_id":35530},{"country":"United States","city":"Manhattan Beach, CA","city_id":35531},{"country":"United States","city":"Lexington, MA","city_id":35533},{"country":"United States","city":"Robinson, il","city_id":35538},{"country":"United States","city":"Tualtin,  OR","city_id":35555},{"country":"United States","city":"Wooster, Ohio","city_id":35561},{"country":"United States","city":"malibu","city_id":35563},{"country":"United States","city":"Cambridge, OH","city_id":35571},{"country":"United States","city":"Owasso, OK","city_id":35574},{"country":"United States","city":"Akron, OH","latitude":41.0814447,"city_id":3386,"longitude":-81.5190053},{"country":"United States","city":"Albuquerque, NM","latitude":35.0844909,"city_id":3387,"longitude":-106.6511367},{"country":"United States","city":"Anaheim, CA","latitude":33.8352932,"city_id":3388,"longitude":-117.9145036},{"country":"United States","city":"Anchorage, AK","latitude":61.2180556,"city_id":3389,"longitude":-149.9002778},{"country":"United States","city":"Arlington, VA","latitude":38.8799697,"city_id":3390,"longitude":-77.1067698},{"country":"United States","city":"Atlanta, GA","latitude":33.7490987,"city_id":3391,"longitude":-84.3901849},{"country":"United States","city":"Austin, TX","latitude":30.267153,"city_id":3393,"longitude":-97.7430608},{"country":"United States","city":"Bakersfield, CA","latitude":35.3732921,"city_id":3395,"longitude":-119.0187125},{"country":"United States","city":"Baltimore, MD","latitude":39.2903848,"city_id":3396,"longitude":-76.6121893},{"country":"United States","city":"Baton Rouge, LA","latitude":30.4582829,"city_id":3397,"longitude":-91.1403196},{"country":"United States","city":"Birmingham, AL","latitude":33.5206608,"city_id":3398,"longitude":-86.80249},{"country":"United States","city":"Boise, ID","latitude":43.6187102,"city_id":3399,"longitude":-116.2146068},{"country":"United States","city":"Boston, MA","latitude":42.35892,"city_id":3400,"longitude":-71.05781},{"country":"United States","city":"Brookhaven, NY","latitude":40.7792653,"city_id":3401,"longitude":-72.9153827},{"country":"United States","city":"Buffalo, NY","latitude":42.8864468,"city_id":3402,"longitude":-78.8783689},{"country":"United States","city":"Charlotte, NC","latitude":35.2270869,"city_id":3403,"longitude":-80.8431267},{"country":"United States","city":"Chesapeake, VA","latitude":36.7682088,"city_id":3404,"longitude":-76.2874927},{"country":"United States","city":"Chicago, IL","latitude":41.8781136,"city_id":3405,"longitude":-87.6297982},{"country":"United States","city":"Cincinnati, OH","latitude":39.1014537,"city_id":3406,"longitude":-84.5124602},{"country":"United States","city":"Cleveland, OH","latitude":41.49932,"city_id":3407,"longitude":-81.6943605},{"country":"United States","city":"Colorado Springs, CO","latitude":38.8338816,"city_id":3408,"longitude":-104.8213634},{"country":"United States","city":"Columbus, OH","latitude":39.962208,"city_id":3409,"longitude":-83.000676},{"country":"United States","city":"Corpus Christi, TX","latitude":27.8005828,"city_id":3410,"longitude":-97.396381},{"country":"United States","city":"Dallas, TX","latitude":32.7761963,"city_id":3411,"longitude":-96.7968994},{"country":"United States","city":"Denver, CO","latitude":39.7391536,"city_id":3412,"longitude":-104.9847034},{"country":"United States","city":"Des Moines, IA","latitude":41.6005448,"city_id":3413,"longitude":-93.6091064},{"country":"United States","city":"Detroit, MI","latitude":42.331427,"city_id":3414,"longitude":-83.0457538},{"country":"United States","city":"Durham, NC","latitude":35.9940329,"city_id":3415,"longitude":-78.898619},{"country":"United States","city":"El Paso, TX","latitude":31.7587198,"city_id":3416,"longitude":-106.4869314},{"country":"United States","city":"Fort Wayne, IN","latitude":41.079273,"city_id":3417,"longitude":-85.1393513},{"country":"United States","city":"Fort Worth, TX","latitude":32.753177,"city_id":3418,"longitude":-97.3327459},{"country":"United States","city":"Fremont, CA","latitude":37.5482697,"city_id":3419,"longitude":-121.9885719},{"country":"United States","city":"Fresno, CA","latitude":36.7477272,"city_id":3420,"longitude":-119.7723661},{"country":"United States","city":"Garland, TX","latitude":32.912624,"city_id":3421,"longitude":-96.6388833},{"country":"United States","city":"Glendale, CA","latitude":34.1425078,"city_id":3422,"longitude":-118.255075},{"country":"United States","city":"Grand Rapids, MI","latitude":42.9633599,"city_id":3423,"longitude":-85.6680863},{"country":"United States","city":"Greensboro, NC","latitude":36.0726354,"city_id":3424,"longitude":-79.7919754},{"country":"United States","city":"Hempstead, NY","latitude":40.7062128,"city_id":3425,"longitude":-73.6187397},{"country":"United States","city":"Hialeah, FL","latitude":25.8670105,"city_id":3426,"longitude":-80.2914626814829},{"country":"United States","city":"Honolulu, HI","latitude":21.3069444,"city_id":3427,"longitude":-157.8583333},{"country":"United States","city":"Houston, TX","latitude":29.7604267,"city_id":3428,"longitude":-95.3698028},{"country":"United States","city":"Huntington, WV","latitude":38.4192496,"city_id":3429,"longitude":-82.445154},{"country":"United States","city":"Huntington Beach, CA","latitude":33.660297,"city_id":3430,"longitude":-117.9992265},{"country":"United States","city":"Indianapolis, IN","latitude":39.7683765,"city_id":3431,"longitude":-86.1580423},{"country":"United States","city":"Irving, TX","latitude":32.8140177,"city_id":3432,"longitude":-96.9488945},{"country":"United States","city":"Islip, NY","latitude":40.7298207,"city_id":3433,"longitude":-73.2103934},{"country":"United States","city":"Jackson, MS","latitude":32.2987573,"city_id":3434,"longitude":-90.1848103},{"country":"United States","city":"Jacksonville, FL","latitude":30.3321838,"city_id":3435,"longitude":-81.655651},{"country":"United States","city":"Jersey City, NJ","latitude":40.7281575,"city_id":3436,"longitude":-74.0776417},{"country":"United States","city":"Kansas City, MO","latitude":39.0997265,"city_id":3437,"longitude":-94.5785667},{"country":"United States","city":"Las Vegas, NV","latitude":36.1699412,"city_id":3438,"longitude":-115.1398296},{"country":"United States","city":"Lincoln, NE","latitude":40.8000554,"city_id":3439,"longitude":-96.6674005},{"country":"United States","city":"Little Rock, AR","latitude":34.7464809,"city_id":3440,"longitude":-92.2895948},{"country":"United States","city":"Long Beach, CA","latitude":33.8041667,"city_id":3441,"longitude":-118.1580556},{"country":"United States","city":"Los Angeles, CA","latitude":34.0522342,"city_id":3442,"longitude":-118.2436849},{"country":"United States","city":"Louisville, KY","latitude":38.2542376,"city_id":3443,"longitude":-85.759407},{"country":"United States","city":"Lubbock, TX","latitude":33.6720835,"city_id":3444,"longitude":-101.858005715545},{"country":"United States","city":"Madison, WI","latitude":43.0730517,"city_id":3445,"longitude":-89.4012302},{"country":"United States","city":"Memphis, TN","latitude":35.1495343,"city_id":3446,"longitude":-90.0489801},{"country":"United States","city":"Mesa, AZ","latitude":33.4151843,"city_id":3447,"longitude":-111.8314724},{"country":"United States","city":"Miami, FL","latitude":25.7742657,"city_id":3448,"longitude":-80.1936589},{"country":"United States","city":"Milwaukee, WI","latitude":43.0389025,"city_id":3449,"longitude":-87.9064736},{"country":"United States","city":"Minneapolis, MN","latitude":44.9799654,"city_id":3450,"longitude":-93.2638361},{"country":"United States","city":"Mobile, AL","latitude":30.6943566,"city_id":3451,"longitude":-88.0430541},{"country":"United States","city":"Modesto, CA","latitude":37.6930765,"city_id":3452,"longitude":-120.94778707347},{"country":"United States","city":"Montgomery, AL","latitude":32.3668052,"city_id":3453,"longitude":-86.2999689},{"country":"United States","city":"New Orleans, LA","latitude":29.9499323,"city_id":3454,"longitude":-90.0701156},{"country":"United States","city":"New York, NY","latitude":40.7127837,"city_id":3455,"longitude":-74.0059413},{"country":"United States","city":"Newark, NJ","latitude":40.735657,"city_id":3456,"longitude":-74.1723667},{"country":"United States","city":"Norfolk, VA","latitude":36.8507689,"city_id":3457,"longitude":-76.2858726},{"country":"United States","city":"Oakland, CA","latitude":37.8043637,"city_id":3459,"longitude":-122.2711137},{"country":"United States","city":"Oklahoma City, OK","latitude":35.4675602,"city_id":3460,"longitude":-97.5164276},{"country":"United States","city":"Omaha, NE","latitude":41.2523634,"city_id":3461,"longitude":-95.99798829999999},{"country":"United States","city":"Orlando, FL","latitude":28.5383355,"city_id":3462,"longitude":-81.3792365},{"country":"United States","city":"Oyster Bay, NY","latitude":40.8656543,"city_id":3463,"longitude":-73.5320685},{"country":"United States","city":"Paradise, NV","latitude":36.0971963,"city_id":3464,"longitude":-115.1466753},{"country":"United States","city":"Philadelphia, PA","latitude":39.952335,"city_id":3465,"longitude":-75.163789},{"country":"United States","city":"Phoenix, AZ","latitude":33.4483771,"city_id":3466,"longitude":-112.0740373},{"country":"United States","city":"Pittsburgh, PA","latitude":40.4406248,"city_id":3467,"longitude":-79.9958864},{"country":"United States","city":"Plano, TX","latitude":33.0198431,"city_id":3468,"longitude":-96.6988856},{"country":"United States","city":"Portland, OR","latitude":45.5230622,"city_id":3469,"longitude":-122.6764816},{"country":"United States","city":"Raleigh, NC","latitude":35.7804015,"city_id":3470,"longitude":-78.6390779},{"country":"United States","city":"Reno, NV","latitude":39.5296329,"city_id":3471,"longitude":-119.8138027},{"country":"United States","city":"Richmond, VA","latitude":37.542979,"city_id":3472,"longitude":-77.469092},{"country":"United States","city":"Riverside, CA","latitude":33.9533487,"city_id":3473,"longitude":-117.3961564},{"country":"United States","city":"Rochester, NY","latitude":43.1572851,"city_id":3474,"longitude":-77.6152141},{"country":"United States","city":"Sacramento, CA","latitude":38.5815719,"city_id":3475,"longitude":-121.4943996},{"country":"United States","city":"Saint Louis, MO","latitude":38.6272733,"city_id":3476,"longitude":-90.1978889},{"country":"United States","city":"Saint Paul, MN","latitude":44.9541667,"city_id":3477,"longitude":-93.1138889},{"country":"United States","city":"Saint Petersburg, FL","latitude":27.7708606,"city_id":3478,"longitude":-82.6792661},{"country":"United States","city":"Salt Lake City, UT","latitude":40.7607793,"city_id":3479,"longitude":-111.8910474},{"country":"United States","city":"San Antonio, TX","latitude":29.4241219,"city_id":3480,"longitude":-98.4936282},{"country":"United States","city":"San Bernardino, CA","latitude":34.1083449,"city_id":3481,"longitude":-117.2897652},{"country":"United States","city":"San Diego, CA","latitude":32.715738,"city_id":3482,"longitude":-117.1610838},{"country":"United States","city":"San Francisco, CA","latitude":37.775206,"city_id":3483,"longitude":-122.419209},{"country":"United States","city":"San Jose, CA","latitude":37.3382082,"city_id":3484,"longitude":-121.8863286},{"country":"United States","city":"Santa Ana, CA","latitude":33.7455731,"city_id":3485,"longitude":-117.8678338},{"country":"United States","city":"Scottsdale, AZ","latitude":33.4941704,"city_id":3486,"longitude":-111.9260519},{"country":"United States","city":"Seattle, WA","latitude":47.6038321,"city_id":3487,"longitude":-122.3300624},{"country":"United States","city":"Shreveport, LA","latitude":32.5251516,"city_id":3488,"longitude":-93.7501789},{"country":"United States","city":"Spokane, WA","latitude":47.6587802,"city_id":3489,"longitude":-117.4260466},{"country":"United States","city":"Stockton, CA","latitude":37.9577016,"city_id":3490,"longitude":-121.2907796},{"country":"United States","city":"Tacoma, WA","latitude":47.2528768,"city_id":3491,"longitude":-122.4442906},{"country":"United States","city":"Tampa, FL","latitude":27.9475216,"city_id":3492,"longitude":-82.4584279},{"country":"United States","city":"Toledo, OH","latitude":41.6639383,"city_id":3493,"longitude":-83.555212},{"country":"United States","city":"Tucson, AZ","latitude":32.2217429,"city_id":3494,"longitude":-110.926479},{"country":"United States","city":"Tulsa, OK","latitude":36.1539816,"city_id":3495,"longitude":-95.992775},{"country":"United States","city":"Virginia Beach, VA","latitude":36.8529263,"city_id":3496,"longitude":-75.977985},{"country":"United States","city":"Washington, DC","latitude":38.9071923,"city_id":3497,"longitude":-77.0368707},{"country":"United States","city":"Wichita, KS","latitude":37.68717609999999,"city_id":3498,"longitude":-97.33005299999999},{"country":"United States","city":"Winston-Salem, NC","latitude":36.0998596,"city_id":3499,"longitude":-80.244216},{"country":"United States","city":"Yonkers, NY","latitude":40.9312099,"city_id":3500,"longitude":-73.8987469},{"country":"United States","city":"Wilkes-Barre, PA","latitude":41.2459149,"city_id":7400,"longitude":-75.8813075},{"country":"United States","city":"Streator, IL","latitude":41.1210446,"city_id":7401,"longitude":-88.835256},{"country":"United States","city":"Imperial, CA","latitude":32.8475528,"city_id":7410,"longitude":-115.5694391},{"country":"United States","city":"Knoxville, TN","latitude":35.9606384,"city_id":7420,"longitude":-83.9207392},{"country":"United States","city":"Burlington, VT","latitude":44.4758825,"city_id":7450,"longitude":-73.212072},{"country":"United States","city":"Watertown, SD","latitude":44.8994088,"city_id":7452,"longitude":-97.1150732},{"country":"United States","city":"Wheeling, WV","latitude":40.0639616,"city_id":7477,"longitude":-80.7209149},{"country":"United States","city":"Boynton Beach, FL","latitude":26.5253491,"city_id":7482,"longitude":-80.0664309},{"country":"United States","city":"Malone, QC","latitude":44.8486596,"city_id":7485,"longitude":-74.29489830000001},{"country":"United States","city":"Stamford, CT","latitude":41.0534302,"city_id":7487,"longitude":-73.5387341},{"country":"United States","city":"Hilton Head Island, SC","latitude":32.216316,"city_id":7488,"longitude":-80.752608},{"country":"United States","city":"Yorktown, VA","latitude":37.2387556,"city_id":7489,"longitude":-76.5096731},{"country":"United States","city":"Savannah, GA","latitude":32.0835407,"city_id":7493,"longitude":-81.0998342},{"country":"United States","city":"Streamwood, IL","latitude":42.0255827,"city_id":7499,"longitude":-88.1784085},{"country":"United States","city":"Fairmont, WV","latitude":39.5288627,"city_id":7500,"longitude":-80.2321313},{"country":"United States","city":"Weslaco, TX","latitude":26.163229,"city_id":7504,"longitude":-98.0157796409572},{"country":"United States","city":"Russellville, AR","latitude":35.2784173,"city_id":7509,"longitude":-93.1337856},{"country":"United States","city":"Stevens Point, WI","latitude":44.5235792,"city_id":7516,"longitude":-89.574563},{"country":"United States","city":"Santa Fe, NM","latitude":35.6869752,"city_id":7518,"longitude":-105.937799},{"country":"United States","city":"Welch, WV","latitude":37.4328913,"city_id":7526,"longitude":-81.5845513},{"country":"United States","city":"Harrisburg, PA","latitude":40.2737002,"city_id":7536,"longitude":-76.8844179},{"country":"United States","city":"Helena, MT","latitude":46.5958056,"city_id":7550,"longitude":-112.0270306},{"country":"United States","city":"Lewiston, ME","latitude":44.100351,"city_id":7551,"longitude":-70.2147764},{"country":"United States","city":"Ashland, OH","latitude":40.8686675,"city_id":7554,"longitude":-82.3182178},{"country":"United States","city":"Joplin, MO","latitude":37.0842271,"city_id":7557,"longitude":-94.513281},{"country":"United States","city":"Santa Rosa, CA","latitude":38.4404674,"city_id":7567,"longitude":-122.7144314},{"country":"United States","city":"Leesburg, GA","latitude":31.7321156,"city_id":7569,"longitude":-84.1707423},{"country":"United States","city":"Ladson, SC","latitude":32.9857275,"city_id":7570,"longitude":-80.1098123},{"country":"United States","city":"Naples, FL","latitude":26.1420358,"city_id":7572,"longitude":-81.7948103},{"country":"United States","city":"Rapid City, SD","latitude":44.0805434,"city_id":7574,"longitude":-103.2310149},{"country":"United States","city":"Fontana, CA","latitude":34.0922335,"city_id":7579,"longitude":-117.435048},{"country":"United States","city":"Germantown, MD","latitude":39.416774,"city_id":7580,"longitude":-76.4585739},{"country":"United States","city":"Binghamton, NY","latitude":42.0986867,"city_id":7585,"longitude":-75.9179738},{"country":"United States","city":"Rock Island, IL","latitude":41.5094771,"city_id":7586,"longitude":-90.5787476},{"country":"United States","city":"Hartford, CT","latitude":41.7637111,"city_id":7589,"longitude":-72.6850932},{"country":"United States","city":"Urbana, IL","latitude":40.1105875,"city_id":7590,"longitude":-88.2072697},{"country":"United States","city":"Appleton, WI","latitude":44.2619309,"city_id":7593,"longitude":-88.4153847},{"country":"United States","city":"Fowlerville, MI","latitude":42.6605894,"city_id":7595,"longitude":-84.0730142},{"country":"United States","city":"Goose Creek, SC","latitude":32.9810059,"city_id":7601,"longitude":-80.0325867},{"country":"United States","city":"Las Cruces, NM","latitude":32.3199396,"city_id":7605,"longitude":-106.7636538},{"country":"United States","city":"Columbia, SC","latitude":34.0007104,"city_id":7608,"longitude":-81.0348144},{"country":"United States","city":"Utica, NY","latitude":43.100903,"city_id":7613,"longitude":-75.232664},{"country":"United States","city":"Newport, RI","latitude":41.4901024,"city_id":7621,"longitude":-71.3128285},{"country":"United States","city":"Paterson, NJ","latitude":40.9137053,"city_id":7622,"longitude":-74.1792284},{"country":"United States","city":"Concord, NH","latitude":43.2081366,"city_id":7627,"longitude":-71.5375718},{"country":"United States","city":"Goldsboro, NC","latitude":35.3848841,"city_id":7632,"longitude":-77.9927651},{"country":"United States","city":"Iowa City, IA","latitude":41.6611277,"city_id":7633,"longitude":-91.5301683},{"country":"United States","city":"State College, PA","latitude":40.7933949,"city_id":7638,"longitude":-77.8600012},{"country":"United States","city":"East Rutherford, NJ","latitude":40.833989,"city_id":7640,"longitude":-74.0970865},{"country":"United States","city":"Normal, IL","latitude":40.5142026,"city_id":7641,"longitude":-88.9906312},{"country":"United States","city":"Lafayette, IN","latitude":40.4167022,"city_id":7642,"longitude":-86.8752869},{"country":"United States","city":"Asheville, NC","latitude":35.6009452,"city_id":7644,"longitude":-82.554015},{"country":"United States","city":"Monterey, CA","latitude":36.6002378,"city_id":7655,"longitude":-121.8946761},{"country":"United States","city":"Weatherford, TX","latitude":32.7647075,"city_id":7659,"longitude":-97.6818919554255},{"country":"United States","city":"Morristown, TN","latitude":36.2139814,"city_id":7660,"longitude":-83.2948922},{"country":"United States","city":"Browns Mills, NJ","latitude":39.9726147,"city_id":7661,"longitude":-74.5829331},{"country":"United States","city":"Allegan, MI","latitude":42.5291989,"city_id":7670,"longitude":-85.8553031},{"country":"United States","city":"Natick, MA","latitude":42.2834298,"city_id":7671,"longitude":-71.3495032},{"country":"United States","city":"Plattsburgh, NY","latitude":44.6994873,"city_id":7679,"longitude":-73.4529124},{"country":"United States","city":"Topeka, KS","latitude":39.0558235,"city_id":7683,"longitude":-95.6890185},{"country":"United States","city":"Arlington, KY","latitude":36.7903347,"city_id":7689,"longitude":-89.012842},{"country":"United States","city":"Lancaster, PA","latitude":40.0378755,"city_id":7696,"longitude":-76.3055144},{"country":"United States","city":"Farmington, MO","latitude":37.7808846,"city_id":7697,"longitude":-90.4217895},{"country":"United States","city":"Albany, NY","latitude":42.6525793,"city_id":7700,"longitude":-73.7562317},{"country":"United States","city":"Versailles, MO","latitude":38.4314141,"city_id":7704,"longitude":-92.8410274},{"country":"United States","city":"Ojai, CA","latitude":34.448712,"city_id":7709,"longitude":-119.239444366026},{"country":"United States","city":"Dayton, OH","latitude":39.7589478,"city_id":7711,"longitude":-84.1916069},{"country":"United States","city":"Syracuse, NY","latitude":43.0481221,"city_id":7720,"longitude":-76.1474244},{"country":"United States","city":"Roanoke, VA","latitude":37.2709704,"city_id":7721,"longitude":-79.9414266},{"country":"United States","city":"Venice, FL","latitude":27.0997775,"city_id":7722,"longitude":-82.4542632},{"country":"United States","city":"Greenville, SC","latitude":34.8526176,"city_id":7724,"longitude":-82.3940104},{"country":"United States","city":"West Caldwell, NJ","latitude":40.849867,"city_id":7731,"longitude":-74.298336},{"country":"United States","city":"Cottonwood, AZ","latitude":34.7391876,"city_id":7736,"longitude":-112.0098791},{"country":"United States","city":"Fort Myers, FL","latitude":26.640628,"city_id":7738,"longitude":-81.8723084},{"country":"United States","city":"Springfield, MO","latitude":37.2089572,"city_id":7754,"longitude":-93.2922989},{"country":"United States","city":"East Providence, RI","latitude":41.8137116,"city_id":7758,"longitude":-71.3700545},{"country":"United States","city":"Wilmington, NC","latitude":34.2257255,"city_id":7759,"longitude":-77.9447102},{"country":"United States","city":"Watkins Glen, NY","latitude":42.369561,"city_id":7761,"longitude":-76.873069},{"country":"United States","city":"Peoria, AZ","latitude":33.5805955,"city_id":7762,"longitude":-112.2373779},{"country":"United States","city":"Kerrville, TX","latitude":30.0474332,"city_id":7768,"longitude":-99.1403189},{"country":"United States","city":"Neillsville, WI","latitude":44.559962,"city_id":7770,"longitude":-90.5962498},{"country":"United States","city":"Scranton, PA","latitude":41.408969,"city_id":7771,"longitude":-75.6624122},{"country":"United States","city":"Rutherford, NJ","latitude":40.826489,"city_id":7777,"longitude":-74.1068091},{"country":"United States","city":"Bolingbrook, IL","latitude":41.6986416,"city_id":7779,"longitude":-88.0683955},{"country":"United States","city":"Vancouver, WA","latitude":45.6387281,"city_id":7793,"longitude":-122.6614861},{"country":"United States","city":"Longview, TX","latitude":32.5007037,"city_id":7801,"longitude":-94.7404891},{"country":"United States","city":"Woodstock, GA","latitude":34.1014873,"city_id":7805,"longitude":-84.5193754},{"country":"United States","city":"Thousand Oaks, CA","latitude":34.1705609,"city_id":7813,"longitude":-118.8375937},{"country":"United States","city":"Bowling Green, KY","latitude":36.9903199,"city_id":7819,"longitude":-86.4436018},{"country":"United States","city":"Huntsville, AL","latitude":34.7303688,"city_id":7822,"longitude":-86.5861037},{"country":"United States","city":"Augusta, ME","latitude":44.3106241,"city_id":7824,"longitude":-69.7794897},{"country":"United States","city":"Redding, CA","latitude":40.5865396,"city_id":7827,"longitude":-122.3916754},{"country":"United States","city":"McHenry, IL","latitude":42.333355,"city_id":7842,"longitude":-88.2667534},{"country":"United States","city":"Bergen County, NJ","latitude":40.9262762,"city_id":7845,"longitude":-74.07701},{"country":"United States","city":"Walla Walla, WA","latitude":46.0645809,"city_id":7847,"longitude":-118.3430209},{"country":"United States","city":"Paola, KS","latitude":38.5722353,"city_id":7853,"longitude":-94.8791294},{"country":"United States","city":"Ann Arbor, MI","latitude":42.2708716,"city_id":7859,"longitude":-83.7263294},{"country":"United States","city":"Ypsilanti, MI","latitude":42.1966292,"city_id":7860,"longitude":-83.6135572},{"country":"United States","city":"Hope, AR","latitude":33.6670615,"city_id":7868,"longitude":-93.5915665},{"country":"United States","city":"Port St Lucie, FL","latitude":27.2758333,"city_id":7892,"longitude":-80.355},{"country":"United States","city":"Deerfield Beach, FL","latitude":26.3184123,"city_id":7904,"longitude":-80.0997657},{"country":"United States","city":"Santa Barbara, CA","latitude":34.4208305,"city_id":7907,"longitude":-119.6981901},{"country":"United States","city":"Rockford, IL","latitude":42.2711311,"city_id":7909,"longitude":-89.0939952},{"country":"United States","city":"Challis, ID","latitude":44.5046445,"city_id":7924,"longitude":-114.2317308},{"country":"United States","city":"Columbus, GA","latitude":32.4609764,"city_id":7928,"longitude":-84.9877094},{"country":"United States","city":"Portageville, MO","latitude":36.4253413,"city_id":7929,"longitude":-89.6995256},{"country":"United States","city":"Manchester, NH","latitude":42.9956397,"city_id":7936,"longitude":-71.4547891},{"country":"United States","city":"Gainesville, GA","latitude":34.2978794,"city_id":7938,"longitude":-83.8240663},{"country":"United States","city":"Winder, GA","latitude":33.9926097,"city_id":7939,"longitude":-83.7201709},{"country":"United States","city":"Marietta, GA","latitude":33.952602,"city_id":7940,"longitude":-84.5499327},{"country":"United States","city":"Cumming, GA","latitude":34.2073196,"city_id":7941,"longitude":-84.1401926},{"country":"United States","city":"Allentown, PA","latitude":40.6084305,"city_id":7944,"longitude":-75.4901833},{"country":"United States","city":"Rockville, MD","latitude":39.0839973,"city_id":7945,"longitude":-77.1527578},{"country":"United States","city":"Buford, GA","latitude":34.1206564,"city_id":7948,"longitude":-84.0043513},{"country":"United States","city":"Saint George, UT","latitude":37.0952778,"city_id":7951,"longitude":-113.5780556},{"country":"United States","city":"Indio, CA","latitude":33.7205771,"city_id":7967,"longitude":-116.2155619},{"country":"United States","city":"Princeton, NJ","latitude":40.3487181,"city_id":7971,"longitude":-74.6590472},{"country":"United States","city":"New Haven, CT","latitude":41.3081527,"city_id":7973,"longitude":-72.9281577},{"country":"United States","city":"Macon, GA","latitude":32.8406946,"city_id":7982,"longitude":-83.6324022},{"country":"United States","city":"Tupelo, MS","latitude":34.2576066,"city_id":7985,"longitude":-88.7033859},{"country":"United States","city":"Belen, NM","latitude":34.6628367,"city_id":7987,"longitude":-106.776416},{"country":"United States","city":"Idaho Falls, ID","latitude":43.4916514,"city_id":7994,"longitude":-112.0339645},{"country":"United States","city":"Olympia, WA","latitude":47.0378741,"city_id":7998,"longitude":-122.9006951},{"country":"United States","city":"San Angelo, TX","latitude":31.4637723,"city_id":8010,"longitude":-100.4370375},{"country":"United States","city":"Newport News, VA","latitude":37.0870821,"city_id":8011,"longitude":-76.4730122},{"country":"United States","city":"Lexington, KY","latitude":38.0317136,"city_id":8014,"longitude":-84.4951359},{"country":"United States","city":"Chico, CA","latitude":39.7284944,"city_id":8019,"longitude":-121.8374777},{"country":"United States","city":"Tallahassee, FL","latitude":30.4382559,"city_id":8022,"longitude":-84.2807329},{"country":"United States","city":"Fort Lauderdale, FL","latitude":26.1224386,"city_id":8025,"longitude":-80.13731740000001},{"country":"United States","city":"Nashville, TN","latitude":36.1626638,"city_id":8029,"longitude":-86.7816016},{"country":"United States","city":"Chevy Chase, MD","latitude":38.9807871,"city_id":8038,"longitude":-77.0823482},{"country":"United States","city":"Towanda, PA","latitude":41.767575,"city_id":8051,"longitude":-76.4427188},{"country":"United States","city":"Saint Johns, MI","latitude":43.001143,"city_id":8056,"longitude":-84.5591521},{"country":"United States","city":"West Palm Beach, FL","latitude":26.7153424,"city_id":8064,"longitude":-80.0533746},{"country":"United States","city":"New Paltz, NY","latitude":41.7475933,"city_id":8067,"longitude":-74.0868095},{"country":"United States","city":"Roy, UT","latitude":41.1616108,"city_id":8071,"longitude":-112.0263313},{"country":"United States","city":"Havana, IL","latitude":40.3000428,"city_id":8083,"longitude":-90.0609506},{"country":"United States","city":"Leawood, KS","latitude":38.966673,"city_id":8086,"longitude":-94.6169012},{"country":"United States","city":"Tiffin, OH","latitude":41.1144992,"city_id":8103,"longitude":-83.1779746},{"country":"United States","city":"Davenport, IA","latitude":41.5236437,"city_id":8105,"longitude":-90.5776367},{"country":"United States","city":"Neenah, WI","latitude":44.1858193,"city_id":8106,"longitude":-88.462609},{"country":"United States","city":"Fairborn, OH","latitude":39.8208925,"city_id":8107,"longitude":-84.0193789},{"country":"United States","city":"Athens, GA","latitude":33.955802,"city_id":8108,"longitude":-83.3823656},{"country":"United States","city":"Melbourne, AR","latitude":36.0595148,"city_id":8113,"longitude":-91.9084819},{"country":"United States","city":"Odessa, TX","latitude":31.8456816,"city_id":8115,"longitude":-102.3676431},{"country":"United States","city":"Westfield, MA","latitude":42.1250929,"city_id":8116,"longitude":-72.749538},{"country":"United States","city":"Hattiesburg, MS","latitude":31.3271189,"city_id":8117,"longitude":-89.2903392},{"country":"United States","city":"McAllen, TX","latitude":26.2260035,"city_id":8121,"longitude":-98.2373177181604},{"country":"United States","city":"Lexington Park, MD","latitude":38.2667917,"city_id":8134,"longitude":-76.4538411},{"country":"United States","city":"Palmdale, CA","latitude":34.5794343,"city_id":8144,"longitude":-118.1164613},{"country":"United States","city":"Northampton, MA","latitude":42.3250896,"city_id":8148,"longitude":-72.6412013},{"country":"United States","city":"Johnstown, PA","latitude":40.3267407,"city_id":8151,"longitude":-78.9219698},{"country":"United States","city":"Norwalk, CT","latitude":41.1175966,"city_id":8153,"longitude":-73.4078968},{"country":"United States","city":"Herndon, VA","latitude":38.9695545,"city_id":8157,"longitude":-77.3860976},{"country":"United States","city":"West Plains, MO","latitude":36.7281154,"city_id":8177,"longitude":-91.8523711},{"country":"United States","city":"Hermosa Beach, CA","latitude":33.8622366,"city_id":8178,"longitude":-118.3995194},{"country":"United States","city":"Palm Coast, FL","latitude":29.5849736,"city_id":8181,"longitude":-81.2078411},{"country":"United States","city":"Watseka, IL","latitude":40.7761465,"city_id":8188,"longitude":-87.7364218},{"country":"United States","city":"Batavia, IL","latitude":41.8500284,"city_id":8191,"longitude":-88.3125738},{"country":"United States","city":"Bloomington, IN","latitude":39.165325,"city_id":8198,"longitude":-86.5263857},{"country":"United States","city":"Waco, TX","latitude":31.549333,"city_id":8201,"longitude":-97.1466695},{"country":"United States","city":"Oelwein, IA","latitude":42.6733171,"city_id":8206,"longitude":-91.9135036},{"country":"United States","city":"Fredericksburg, VA","latitude":38.3031837,"city_id":8216,"longitude":-77.4605399},{"country":"United States","city":"Wallingford, CT","latitude":41.4510748,"city_id":8218,"longitude":-72.8220064},{"country":"United States","city":"Santa Clarita, CA","latitude":34.42333,"city_id":8222,"longitude":-118.47111},{"country":"United States","city":"Plymouth, MI","latitude":42.3714253,"city_id":8247,"longitude":-83.4702132},{"country":"United States","city":"Ashland, MA","latitude":42.261111,"city_id":8268,"longitude":-71.463889},{"country":"United States","city":"Parsippany-Troy Hills, NJ","latitude":40.8578772,"city_id":8271,"longitude":-74.4259866},{"country":"United States","city":"Woodbridge, NJ","latitude":40.5575986,"city_id":8273,"longitude":-74.2846022},{"country":"United States","city":"Gadsden, AL","latitude":34.014264,"city_id":8278,"longitude":-86.0066386},{"country":"United States","city":"Stanford, CA","latitude":37.4266268,"city_id":8279,"longitude":-122.170113702442},{"country":"United States","city":"Bath, NY","latitude":42.3370164,"city_id":8280,"longitude":-77.3177577},{"country":"United States","city":"Bremerton, WA","latitude":47.57,"city_id":8294,"longitude":-122.6525},{"country":"United States","city":"Hope Mills, NC","latitude":34.9704419,"city_id":8296,"longitude":-78.9453056},{"country":"United States","city":"Duluth, MN","latitude":46.7866719,"city_id":8301,"longitude":-92.1004852},{"country":"United States","city":"Eldon, MO","latitude":38.3483636,"city_id":8315,"longitude":-92.5815759},{"country":"United States","city":"Brunswick, GA","latitude":31.1499528,"city_id":8320,"longitude":-81.4914894},{"country":"United States","city":"Oxnard, CA","latitude":34.1975048,"city_id":8324,"longitude":-119.1770516},{"country":"United States","city":"Blytheville, AR","latitude":35.9272953,"city_id":8330,"longitude":-89.9189753},{"country":"United States","city":"Sioux Falls, SD","latitude":43.5499749,"city_id":8331,"longitude":-96.700327},{"country":"United States","city":"Springfield, MA","latitude":42.1014831,"city_id":8343,"longitude":-72.589811},{"country":"United States","city":"Kenosha, WI","latitude":42.5847425,"city_id":8358,"longitude":-87.8211854},{"country":"United States","city":"Irvine, CA","latitude":33.6839473,"city_id":8366,"longitude":-117.7946942},{"country":"United States","city":"Dennison, OH","latitude":40.3933994,"city_id":8367,"longitude":-81.3337215},{"country":"United States","city":"Woodbury, NY","latitude":40.8256545,"city_id":8376,"longitude":-73.4676225},{"country":"United States","city":"Barnegat, NJ","latitude":39.7649223,"city_id":8383,"longitude":-74.2693297},{"country":"United States","city":"College Station, TX","latitude":30.627977,"city_id":8396,"longitude":-96.3344068},{"country":"United States","city":"Decatur, IL","latitude":39.8403147,"city_id":8399,"longitude":-88.9548001},{"country":"United States","city":"Aurora, IL","latitude":41.7605849,"city_id":8400,"longitude":-88.3200715},{"country":"United States","city":"Westminster, CA","latitude":33.7513419,"city_id":8402,"longitude":-117.9939921},{"country":"United States","city":"Evansville, IN","latitude":37.9715592,"city_id":8405,"longitude":-87.5710898},{"country":"United States","city":"Providence, RI","latitude":41.8239891,"city_id":8406,"longitude":-71.4128343},{"country":"United States","city":"West Frankfort, IL","latitude":37.8985966,"city_id":8412,"longitude":-88.9233622},{"country":"United States","city":"Springfield, IL","latitude":39.7817213,"city_id":8414,"longitude":-89.6501481},{"country":"United States","city":"Kokomo, IN","latitude":40.486427,"city_id":8430,"longitude":-86.1336033},{"country":"United States","city":"Gardnerville, NV","latitude":38.9412959,"city_id":8434,"longitude":-119.7496216},{"country":"United States","city":"Watertown, NY","latitude":43.9747838,"city_id":8435,"longitude":-75.9107565},{"country":"United States","city":"Chattanooga, TN","latitude":35.0456297,"city_id":8438,"longitude":-85.3096801},{"country":"United States","city":"Hanover, NH","latitude":43.7022928,"city_id":8441,"longitude":-72.2895353},{"country":"United States","city":"Bellingham, WA","latitude":48.7595529,"city_id":8448,"longitude":-122.4882249},{"country":"United States","city":"Tempe, AZ","latitude":33.4255104,"city_id":8449,"longitude":-111.9400054},{"country":"United States","city":"Long Branch, NJ","latitude":40.3042778,"city_id":8459,"longitude":-73.9923596},{"country":"United States","city":"Williamsburg, VA","latitude":37.2707028,"city_id":8461,"longitude":-76.7074502},{"country":"United States","city":"Springfield, VA","latitude":38.7892801,"city_id":8473,"longitude":-77.1872036},{"country":"United States","city":"Lawrenceville, GA","latitude":33.9562149,"city_id":8474,"longitude":-83.9879625},{"country":"United States","city":"Saddle Brook, NJ","latitude":40.898988,"city_id":8492,"longitude":-74.0926418},{"country":"United States","city":"High Point, NC","latitude":35.9556923,"city_id":8496,"longitude":-80.0053176},{"country":"United States","city":"Martha's Vineyard, MA","latitude":41.4167799,"city_id":8497,"longitude":-70.616139},{"country":"United States","city":"Texarkana, AR","latitude":33.4417915,"city_id":8499,"longitude":-94.0376881},{"country":"United States","city":"Lawrence, KS","latitude":38.9716689,"city_id":8510,"longitude":-95.2352501},{"country":"United States","city":"Westhampton Beach, NY","latitude":40.8093799,"city_id":8511,"longitude":-72.6458277},{"country":"United States","city":"Marion, AR","latitude":36.1684034,"city_id":8515,"longitude":-92.4567272},{"country":"United States","city":"De Witt, NE","latitude":40.3936136,"city_id":8516,"longitude":-96.922806},{"country":"United States","city":"Charleston, SC","latitude":32.7765656,"city_id":8539,"longitude":-79.9309216},{"country":"United States","city":"Fort Collins, CO","latitude":40.5852602,"city_id":8543,"longitude":-105.084423},{"country":"United States","city":"Baytown, TX","latitude":29.7355047,"city_id":8551,"longitude":-94.9774274},{"country":"United States","city":"Kingwood, WV","latitude":39.4717557,"city_id":8571,"longitude":-79.6833884},{"country":"United States","city":"Lake Charles, LA","latitude":30.2265949,"city_id":8579,"longitude":-93.2173759},{"country":"United States","city":"Paris, TX","latitude":33.6609389,"city_id":8587,"longitude":-95.555513},{"country":"United States","city":"Batesville, MS","latitude":34.3114982,"city_id":8589,"longitude":-89.9442567},{"country":"United States","city":"Ventura, CA","latitude":34.2746405,"city_id":8601,"longitude":-119.2290053},{"country":"United States","city":"Summersville, WV","latitude":38.2812203,"city_id":8621,"longitude":-80.8525981},{"country":"United States","city":"Basin, WY","latitude":44.3799556,"city_id":8632,"longitude":-108.038989},{"country":"United States","city":"Medford, OR","latitude":42.3265152,"city_id":8633,"longitude":-122.8755949},{"country":"United States","city":"Ridgecrest, CA","latitude":35.6224561,"city_id":8634,"longitude":-117.6708966},{"country":"United States","city":"Fairfield, ME","latitude":44.5883989,"city_id":8638,"longitude":-69.5986567},{"country":"United States","city":"Highland, CA","latitude":34.1283442,"city_id":8639,"longitude":-117.2086513},{"country":"United States","city":"Wayland, NY","latitude":42.5678449,"city_id":8644,"longitude":-77.5897139},{"country":"United States","city":"Wisconsin Dells, WI","latitude":43.6274794,"city_id":8649,"longitude":-89.7709579},{"country":"United States","city":"Rogers, AR","latitude":36.3320196,"city_id":8651,"longitude":-94.1185366},{"country":"United States","city":"Libertyville, IL","latitude":42.2830786,"city_id":8657,"longitude":-87.9531303},{"country":"United States","city":"Zanesville, OH","latitude":39.9403453,"city_id":8665,"longitude":-82.0131924},{"country":"United States","city":"Reading, PA","latitude":40.3356483,"city_id":8666,"longitude":-75.9268747},{"country":"United States","city":"Balch Springs, TX","latitude":32.7287413,"city_id":8669,"longitude":-96.6227714},{"country":"United States","city":"Middlesex, NJ","latitude":40.572603,"city_id":8676,"longitude":-74.4926541},{"country":"United States","city":"Fairfax, VA","latitude":38.8462236,"city_id":8684,"longitude":-77.3063733},{"country":"United States","city":"Lahaina, HI","latitude":20.8870625,"city_id":8687,"longitude":-156.676034915378},{"country":"United States","city":"Royersford, PA","latitude":40.1842688,"city_id":8697,"longitude":-75.5379639},{"country":"United States","city":"Marshfield, WI","latitude":44.6688524,"city_id":8703,"longitude":-90.1717987},{"country":"United States","city":"Aspen, CO","latitude":39.1910983,"city_id":8709,"longitude":-106.8175387},{"country":"United States","city":"Osceola, WI","latitude":45.3205199,"city_id":8714,"longitude":-92.7049303},{"country":"United States","city":"Portland, ME","latitude":43.661471,"city_id":8722,"longitude":-70.2553259},{"country":"United States","city":"Carbondale, IL","latitude":37.7272727,"city_id":8729,"longitude":-89.2167501},{"country":"United States","city":"Rochester, MN","latitude":44.0216306,"city_id":8751,"longitude":-92.4698992},{"country":"United States","city":"Grand Forks, ND","latitude":47.9252568,"city_id":8754,"longitude":-97.0328547},{"country":"United States","city":"Santa Cruz, CA","latitude":36.9741171,"city_id":8766,"longitude":-122.0307963},{"country":"United States","city":"Fargo, ND","latitude":46.8771863,"city_id":8779,"longitude":-96.7898034},{"country":"United States","city":"Wausau, WI","latitude":44.9591352,"city_id":8781,"longitude":-89.6301221},{"country":"United States","city":"Crestline, CA","latitude":34.2419509,"city_id":8800,"longitude":-117.2855993},{"country":"United States","city":"Woodbridge, VA","latitude":38.6581722,"city_id":8802,"longitude":-77.2497049},{"country":"United States","city":"Morenci, AZ","latitude":33.0497222,"city_id":8805,"longitude":-109.3277778},{"country":"United States","city":"Santa Monica, CA","latitude":34.0194543,"city_id":8807,"longitude":-118.4911912},{"country":"United States","city":"Biloxi, MS","latitude":30.3960318,"city_id":8821,"longitude":-88.8853078},{"country":"United States","city":"Clayton, GA","latitude":34.8781479,"city_id":8823,"longitude":-83.4009933},{"country":"United States","city":"Whitefield, ME","latitude":44.1700735,"city_id":8836,"longitude":-69.6253223},{"country":"United States","city":"Hazard, KY","latitude":37.24954,"city_id":8840,"longitude":-83.1932284},{"country":"United States","city":"Spring Valley, IL","latitude":41.3275352,"city_id":8843,"longitude":-89.1998076},{"country":"United States","city":"Manassas, VA","latitude":38.7509488,"city_id":8849,"longitude":-77.4752667},{"country":"United States","city":"Stanfield, NC","latitude":35.2334772,"city_id":8865,"longitude":-80.4270094},{"country":"United States","city":"East Orange, NJ","latitude":40.767323,"city_id":8866,"longitude":-74.2048677},{"country":"United States","city":"Williamsport, PA","latitude":41.2493292,"city_id":8868,"longitude":-77.0027671},{"country":"United States","city":"Paso Robles, CA","latitude":35.6322789,"city_id":8873,"longitude":-120.664187},{"country":"United States","city":"Midland, MI","latitude":43.6155825,"city_id":8893,"longitude":-84.2472116},{"country":"United States","city":"Mount Pleasant, MI","latitude":43.5978075,"city_id":8901,"longitude":-84.7675139},{"country":"United States","city":"Martinsburg, WV","latitude":39.4562099,"city_id":8903,"longitude":-77.9638869},{"country":"United States","city":"Melbourne, FL","latitude":28.0836269,"city_id":8904,"longitude":-80.6081089},{"country":"United States","city":"Pensacola, FL","latitude":30.421309,"city_id":8910,"longitude":-87.2169149},{"country":"United States","city":"Alexandria, VA","latitude":38.8048355,"city_id":8914,"longitude":-77.0469214},{"country":"United States","city":"Kalamazoo, MI","latitude":42.2917069,"city_id":8916,"longitude":-85.5872286},{"country":"United States","city":"New Bedford, MA","latitude":41.6362152,"city_id":8917,"longitude":-70.934205},{"country":"United States","city":"Monroe, MI","latitude":41.9164343,"city_id":8921,"longitude":-83.3977101},{"country":"United States","city":"Tega Cay, SC","latitude":35.024312,"city_id":8923,"longitude":-81.0278546},{"country":"United States","city":"Amherst, VA","latitude":37.5851412,"city_id":8926,"longitude":-79.0514134},{"country":"United States","city":"West Chester, PA","latitude":39.9606643,"city_id":8928,"longitude":-75.6054882},{"country":"United States","city":"Chesterfield, MI","latitude":42.66278,"city_id":8938,"longitude":-82.8425},{"country":"United States","city":"Valparaiso, IN","latitude":41.4730948,"city_id":8957,"longitude":-87.0611412},{"country":"United States","city":"Bradenton, FL","latitude":27.4989278,"city_id":8960,"longitude":-82.5748194},{"country":"United States","city":"Albert Lea, MN","latitude":43.6485683,"city_id":8979,"longitude":-93.3624319},{"country":"United States","city":"Marquette, MI","latitude":46.5475825,"city_id":8988,"longitude":-87.3955954},{"country":"United States","city":"Trenton, NJ","latitude":40.2170575,"city_id":8989,"longitude":-74.7429463},{"country":"United States","city":"Price, UT","latitude":39.5994095,"city_id":8996,"longitude":-110.8107148},{"country":"United States","city":"Albany, OR","latitude":44.6365107,"city_id":9002,"longitude":-123.1059282},{"country":"United States","city":"Tuscaloosa, AL","latitude":33.2098407,"city_id":9005,"longitude":-87.5691735},{"country":"United States","city":"Shepherdstown, WV","latitude":39.4300996,"city_id":9012,"longitude":-77.8041609},{"country":"United States","city":"Annapolis, MD","latitude":38.9784453,"city_id":9016,"longitude":-76.4921829},{"country":"United States","city":"Sheboygan, WI","latitude":43.7508284,"city_id":9020,"longitude":-87.71453},{"country":"United States","city":"Pocatello, ID","latitude":42.8713032,"city_id":9026,"longitude":-112.4455344},{"country":"United States","city":"Thorne Bay, AK","latitude":55.6877778,"city_id":9027,"longitude":-132.5222221},{"country":"United States","city":"Kennewick, WA","latitude":46.2112458,"city_id":9031,"longitude":-119.1372338},{"country":"United States","city":"Newport Beach, CA","latitude":33.6189101,"city_id":9032,"longitude":-117.9289469},{"country":"United States","city":"Trumbull, CT","latitude":41.2600905499227,"city_id":9035,"longitude":-73.2081424177386},{"country":"United States","city":"Danville, CA","latitude":37.8215929,"city_id":9036,"longitude":-121.9999606},{"country":"United States","city":"Killeen, TX","latitude":31.1171194,"city_id":9039,"longitude":-97.7277959},{"country":"United States","city":"Myrtle Beach, SC","latitude":33.6890603,"city_id":9044,"longitude":-78.8866943},{"country":"United States","city":"Van Buren, AR","latitude":35.436756,"city_id":9045,"longitude":-94.348268},{"country":"United States","city":"Greenbriar, AR","latitude":35.2339712,"city_id":9049,"longitude":-92.387655},{"country":"United States","city":"Geneva, IL","latitude":41.8875281,"city_id":9056,"longitude":-88.3053525},{"country":"United States","city":"Laurel, MS","latitude":31.6940509,"city_id":9074,"longitude":-89.1306124},{"country":"United States","city":"Crystal Lake, IL","latitude":42.2411344,"city_id":9079,"longitude":-88.3161965},{"country":"United States","city":"Richmond, KY","latitude":37.7478572,"city_id":9080,"longitude":-84.2946539},{"country":"United States","city":"Dothan, AL","latitude":31.2232313,"city_id":9081,"longitude":-85.3904888},{"country":"United States","city":"Prescott, AZ","latitude":34.5400242,"city_id":9094,"longitude":-112.4685025},{"country":"United States","city":"Erie, PA","latitude":42.1292241,"city_id":9096,"longitude":-80.085059},{"country":"United States","city":"Bismarck, ND","latitude":46.8083268,"city_id":9103,"longitude":-100.7837392},{"country":"United States","city":"Mapleton, UT","latitude":40.1302338,"city_id":9110,"longitude":-111.5785281},{"country":"United States","city":"Hagerstown, MD","latitude":39.6419219,"city_id":9113,"longitude":-77.7202641},{"country":"United States","city":"Ville Platte, LA","latitude":30.6879749,"city_id":9115,"longitude":-92.2715157},{"country":"United States","city":"Fort Dodge, IA","latitude":42.4974694,"city_id":9119,"longitude":-94.1680158},{"country":"United States","city":"Southampton, NY","latitude":40.884267,"city_id":9122,"longitude":-72.3895296},{"country":"United States","city":"Ames, IA","latitude":42.02335,"city_id":9124,"longitude":-93.625622},{"country":"United States","city":"York, PA","latitude":39.9625984,"city_id":9125,"longitude":-76.727745},{"country":"United States","city":"Arlington, TX","latitude":32.735687,"city_id":9131,"longitude":-97.1080656},{"country":"United States","city":"Shamokin, PA","latitude":40.7889746,"city_id":9137,"longitude":-76.5588473},{"country":"United States","city":"Prophetstown, IL","latitude":41.6714198,"city_id":9140,"longitude":-89.9362249},{"country":"United States","city":"Red Bank, NJ","latitude":40.3470543,"city_id":9150,"longitude":-74.0643065},{"country":"United States","city":"Silver Spring, MD","latitude":38.9906657,"city_id":9151,"longitude":-77.026088},{"country":"United States","city":"Cerritos, CA","latitude":33.8668925,"city_id":9165,"longitude":-118.049503357446},{"country":"United States","city":"Greenville, TX","latitude":33.1384488,"city_id":9166,"longitude":-96.1108066},{"country":"United States","city":"Mount Pleasant, PA","latitude":40.1489607,"city_id":9178,"longitude":-79.5411497},{"country":"United States","city":"Charlottesville, VA","latitude":38.0293059,"city_id":9181,"longitude":-78.4766781},{"country":"United States","city":"West Hartford, CT","latitude":41.7620842,"city_id":9182,"longitude":-72.7420151},{"country":"United States","city":"Jackson, WY","latitude":43.4799291,"city_id":9184,"longitude":-110.7624282},{"country":"United States","city":"Youngstown, OH","latitude":41.0997803,"city_id":9194,"longitude":-80.6495194},{"country":"United States","city":"London, KY","latitude":37.1289771,"city_id":9196,"longitude":-84.0832646},{"country":"United States","city":"Morristown, NJ","latitude":40.7967667,"city_id":9199,"longitude":-74.4815438},{"country":"United States","city":"Banning, CA","latitude":33.9255685,"city_id":9209,"longitude":-116.875289},{"country":"United States","city":"Murfreesboro, TN","latitude":35.8456213,"city_id":9217,"longitude":-86.39027},{"country":"United States","city":"Augusta, GA","latitude":33.4734978,"city_id":9221,"longitude":-82.0105148},{"country":"United States","city":"Eugene, OR","latitude":44.0520691,"city_id":9224,"longitude":-123.0867536},{"country":"United States","city":"Klamath Falls, OR","latitude":42.224867,"city_id":9227,"longitude":-121.7816704},{"country":"United States","city":"Pomona, CA","latitude":34.0552267,"city_id":9234,"longitude":-117.7523048},{"country":"United States","city":"Breckenridge, CO","latitude":39.4816537,"city_id":9238,"longitude":-106.0383518},{"country":"United States","city":"Stillwater, OK","latitude":36.1156071,"city_id":9244,"longitude":-97.0583681},{"country":"United States","city":"West Greenwich, RI","latitude":41.6226185,"city_id":9245,"longitude":-71.6657892},{"country":"United States","city":"Fayetteville, NC","latitude":35.0526641,"city_id":9246,"longitude":-78.8783585},{"country":"United States","city":"Anaconda, MT","latitude":46.1262998,"city_id":9253,"longitude":-112.9478359},{"country":"United States","city":"Deer River, MN","latitude":47.3328773,"city_id":9257,"longitude":-93.793048},{"country":"United States","city":"Waynesville, MO","latitude":37.8286516,"city_id":9260,"longitude":-92.2007227},{"country":"United States","city":"Alpena, MI","latitude":45.0616794,"city_id":9262,"longitude":-83.4327528},{"country":"United States","city":"Ocala, FL","latitude":29.1871986,"city_id":9266,"longitude":-82.1400923},{"country":"United States","city":"Amarillo, TX","latitude":35.201967,"city_id":9269,"longitude":-101.813802901497},{"country":"United States","city":"Jonesboro, AR","latitude":35.8422967,"city_id":9275,"longitude":-90.704279},{"country":"United States","city":"Green Bay, WI","latitude":44.519159,"city_id":9276,"longitude":-88.019826},{"country":"United States","city":"Brecksville, OH","latitude":41.3197763,"city_id":9279,"longitude":-81.6267904},{"country":"United States","city":"Redmond, WA","latitude":47.6694141,"city_id":9281,"longitude":-122.1238767},{"country":"United States","city":"Neosho, MO","latitude":36.8689554,"city_id":9288,"longitude":-94.367996},{"country":"United States","city":"Owensboro, KY","latitude":37.7719074,"city_id":9294,"longitude":-87.1111676},{"country":"United States","city":"Rhinelander, WI","latitude":45.6366228,"city_id":9296,"longitude":-89.4120753},{"country":"United States","city":"Flanders, NJ","latitude":40.8456549,"city_id":9299,"longitude":-74.6948843},{"country":"United States","city":"Morrisville, PA","latitude":40.2114977,"city_id":9304,"longitude":-74.7879399},{"country":"United States","city":"Bentonville, AR","latitude":36.3728538,"city_id":9306,"longitude":-94.2088172},{"country":"United States","city":"Anderson, SC","latitude":34.5034394,"city_id":9314,"longitude":-82.6501332},{"country":"United States","city":"Big Spring, TX","latitude":32.2370195,"city_id":9319,"longitude":-101.477732453279},{"country":"United States","city":"Dunellen, NJ","latitude":40.5892696,"city_id":9321,"longitude":-74.4718201},{"country":"United States","city":"Adelanto, CA","latitude":34.5827699,"city_id":9325,"longitude":-117.409215},{"country":"United States","city":"Warner Robins, GA","latitude":32.5795895,"city_id":9328,"longitude":-83.6680571630258},{"country":"United States","city":"Columbia, MO","latitude":38.9517053,"city_id":9331,"longitude":-92.3340724},{"country":"United States","city":"Terre Haute, IN","latitude":39.4667034,"city_id":9332,"longitude":-87.4139092},{"country":"United States","city":"Saint Clair (St Clair), MI","latitude":42.9426715,"city_id":9336,"longitude":-82.6283554},{"country":"United States","city":"Perkasie, PA","latitude":40.372048,"city_id":9350,"longitude":-75.292676},