country,city,state,latitude,city_id,longitude
United States,Midlothian, VA,37.5061069,33333,-77.6490005
United States,Ridley Park, PA,39.8812236,33343,-75.32379929999999
United States,Johannesberg, CA,35.3727406,33344,-117.6347823
United States,Sylva, NC,35.3737111,33348,-83.22598029999999
United States,Kewwannee, IL,41.2455927,33352,-89.9248303
United States,Superior, WI,46.7207737,33354,-92.10407959999999
United States,Brewster, OH,40.707003,33361,-81.59817989999999
United States,Stillwater, MN,45.056004,33371,-92.80884429999999
United States,Greeley, CO,40.4233142,33374,-104.7091322
United States,Lyons, IL,41.8133651,33376,-87.8181128
United States,Danville, VA,36.5859718,33377,-79.39502279999999
United States,Rutland, VT,43.6106237,33384,-72.9726065
United States,Pendleton, SC,34.6517733,33388,-82.7837514
United States,Waverly, IA,42.7272032,33390,-92.4668511
United States,Hillsboro, OR,45.5228939,33391,-122.989827
United States,Hutchinson, MN,44.89254830000001,33395,-94.3692926
United States,Mundelein, IL,42.263079,33396,-88.00396529999999
United States,Sandpoint, ID,48.276577,33398,-116.553465
United States,Gridley, CA,39.3637773,33402,-121.6935833
United States,Vassalboro, ME,44.45888069999999,33409,-69.67776049999999
United States,Boulder City, NV,35.9782216,33413,-114.8345117
United States,Jamestown, ND,46.9105438,33415,-98.7084357
United States,Niagara Falls, NY,43.0962143,33416,-79.0377388
United States,Clinton, MS,32.3415342,33417,-90.3217585
United States,Big Bear Lake, CA,34.2438963,33418,-116.9114215
United States,Clifton Park, NY,42.844668,33426,-73.8183804
United States,Wadsworth, OH,41.0256101,33430,-81.72985190000001
United States,Woburn, MA,42.4792618,33431,-71.1522765
United States,Chula Vista, CA,32.6400541,33433,-117.0841955
United States,Huntingdon, PA,40.48479589999999,33447,-78.0102813
United States,West Allis, WI,43.0166806,33457,-88.0070315
United States,Williamstown, MA,42.7120196,33473,-73.20368979999999
United States,Ashburn, VA,39.0437567,33474,-77.4874416
United States,Indialantic, FL,28.0894599,33476,-80.5656079
United States,Mulvane, KS,37.474464,33477,-97.2439325
United States,Elkhorn, WI,42.6727927,33481,-88.5445447
United States,Antioch, CA,38.0049214,33492,-121.805789
United States,Chesterbrook, PA,,33507,
United States,St. Augustine, FL,29.9012437,33514,-81.31243409999999
United States,Staunton, VA,38.149576,33518,-79.0716958
United States,Flagler Beach, FL,29.4749754,33524,-81.1270035
United States,Chadron, NE,42.8294187,33525,-102.9999069
United States,Bloomfield Hills, MI,42.583645,33547,-83.24548829999999
United States,Blaine, WA,48.993723,33549,-122.7471191
United States,Riverton, UT,40.521893,33550,-111.9391023
United States,Frostburg, MD,39.6581424,33559,-78.92835699999999
United States,Gulf Breeze, FL,30.3571438,33561,-87.1638574
United States,Provincetown, MA,42.0584412,33568,-70.1786425
United States,Dalton, GA,34.7698021,33576,-84.9702228
United States,Round Hill, VA,39.1326051,33577,-77.7686051
United States,Saint Albans, VT,44.8107132,33581,-73.0835582
United States,Starkville, MS,33.4503998,33582,-88.81838719999999
United States,Milton, DE,38.7776124,33583,-75.3099136
United States,Middleburg, FL,,33595,
United States,Rock Falls, IL,41.7797533,33596,-89.68899669999999
United States,Franklin,,36.9911656,33598,-79.8839701
United States,Ripon, WI,43.8422049,33599,-88.8359447
United States,Plainfield, IL,41.632223,33604,-88.2120315
United States,Evanston, IL,42.0450722,33606,-87.68769689999999
United States,Vacaville, CA,38.3565773,33611,-121.9877444
United States,Dubuque,,42.5005583,33624,-90.66457179999999
United States,Brookings,,44.3113573,33625,-96.79838769999999
United States,Branson, MO,36.6436731,33626,-93.21851439999999
United States,Fayettevill, GA,33.4487257,33628,-84.4549262
United States,Bloomfield, NJ,40.8067546,33638,-74.1854209
United States,Corona, CA,33.8752935,33663,-117.5664384
United States,Huntington, TX,31.2776873,33680,-94.576594
United States,Fountain Valley, CA,33.7091847,33687,-117.9536697
United States,Port Huron, MI,42.9708634,33704,-82.42491419999999
United States,Alpine, TX,30.3584919,33706,-103.6610115
United States,Leavenworth, WA,47.5962326,33720,-120.6614765
United States,Mount Laurel, NJ,39.934002,33725,-74.89099879999999
United States,Laguna Niguel, CA,,33733,
United States,Aliso Viejo, CA,33.5684605,33734,-117.7262981
United States,Park City, UT,40.6460622,33736,-111.4979729
United States,Ellisville, MS,31.6040538,33753,-89.1956142
United States,Poulsbo, WA,47.735928,33757,-122.6465372
United States,Ridgewood, NJ,40.9792645,33758,-74.11653129999999
United States,Winamac, IN,,33759,
United States,Tahlequah, OK,35.91537,33762,-94.969956
United States,Janesville, WI,42.6827885,33763,-89.0187222
United States,Malden, MA,42.4250964,33775,-71.066163
United States,Springfield, OH,39.9242266,33776,-83.8088171
United States,Piedmont, CA,37.8243715,33777,-122.231635
United States,New London, CT,41.3556539,33778,-72.0995209
United States,Chelsea, MA,42.3917638,33779,-71.0328284
United States,West Warwick, RI,41.70367110000001,33780,-71.5215024
United States,Dedham, MA,42.2436085,33781,-71.1676536
United States,Needham, MA,42.2809285,33782,-71.23775479999999
United States,Littleton, NH,44.3061628,33783,-71.7701237
United States,Pawtucket, RI,41.878711,33784,-71.38255579999999
United States,Farmington, CT,41.7360305,33785,-72.79502699999999
United States,Greenfield, MA,42.587915,33786,-72.5994104
United States,North Andover, MA,42.69870239999999,33787,-71.1350575
United States,Saugus, MA,42.4651421,33788,-71.0110473
United States,Bedford, MA,38.8611619,33789,-86.4872149
United States,Greenwich, NY,43.1374547,33793,-73.48872879999999
United States,Lisbon, NH,44.2133222,33794,-71.9109059
United States,Claremont, NH,43.3728635,33795,-72.33787439999999
United States,Thief River Falls, MN,48.1191353,33808,-96.18114729999999
United States,Madison Heights, MI,42.4858692,33813,-83.1052028
United States,Bloomsburg, PA,41.003698,33814,-76.4549457
United States,Newton Falls, OH,41.18839,33821,-80.97814679999999
United States,Lake Havasu City, AZ,34.483901,33827,-114.3224548
United States,Fort Madison, IA,40.6297634,33828,-91.31453499999999
United States,Clinton, NJ,40.6367682,33832,-74.90988999999999
United States,Kenmore, WA,47.7583576,33838,-122.2496863
United States,Haverhill, MA,42.7762015,33844,-71.0772796
United States,Good Hope, IL,40.5578178,33851,-90.6734649
United States,Mechanic Falls, ME,44.1117418,33857,-70.3917985
United States,Arden-Arcade, CA,38.6008071,33859,-121.3770336
United States,Forest City, NC,35.3340108,33872,-81.8651028
United States,O'Fallon, MO,38.8106075,33875,-90.69984769999999
United States,Albemarle, NC,35.3501426,33887,-80.2000578
United States,Citrus Heights, CA,38.7071247,33891,-121.2810611
United States,Port Angeles,,48.118146,33894,-123.4307413
United States,Dubuque, IA,42.5005583,33898,-90.66457179999999
United States,Wasilla, AK,61.5813889,33905,-149.4394444
United States,Olive Branch, MS,34.9617604,33906,-89.8295315
United States,Bartlesville, OK,36.7473114,33911,-95.98081789999999
United States,Bartlett, TN,35.2045328,33916,-89.8739753
United States,Hunt Valley, MD,39.4900013,33921,-76.65850739999999
United States,Rockdale, TX,30.6554759,33924,-97.00137439999999
United States,Rio Rancho, NM,35.2327544,33944,-106.6630437
United States,Gaithersburg, MD,39.1434406,33945,-77.2013705
United States,Lincolnville, ME,44.2811973,33948,-69.0087018
United States,Rockford, MI,43.1200272,33952,-85.5600316
United States,Carlisle, PA,40.2010241,33955,-77.20027449999999
United States,St Joseph, MI,42.0938577,33960,-86.4895463
United States,Lanoka Harbor, NJ,39.8650878,33967,-74.1573586
United States,Titusville, FL,28.6122187,33970,-80.8075537
United States,Hastings, NE,40.5862583,33974,-98.38987259999999
United States,Newton, NJ,41.0581527,33976,-74.7526651
United States,Chillicothe, MO,39.7952946,33977,-93.5524358
United States,Chanute, KS,37.6792135,34009,-95.4572034
United States,Long Island, NY,40.8517821,34013,-73.099185269027
United States,El Cajon, CA,32.7947731,34019,-116.9625269
United States,Cedartown, GA,34.0112715,34029,-85.25658229999999
United States,Sewickley, PA,40.5364846,34040,-80.1844243
United States,Oswego, NY,43.4553461,34046,-76.5104973
United States,Lewistown, MT,47.0624732,34047,-109.428238
United States,Ambler, PA,40.1545535,34048,-75.22156509999999
United States,Bainbridge, GA,30.9037995,34049,-84.57546990000002
United States,Basking Ridge, NJ,40.7066174,34051,-74.5493284
United States,Avon, CT,,34052,
United States,Mechanicsburg, PA,40.2142565,34053,-77.0085876
United States,Mansfield, TX,32.5631924,34054,-97.1416768
United States,Sayville, NY,,34055,
United States,Harrogate, TN,36.5823046,34057,-83.65685789999999
United States,Howard, OH,40.4077183,34058,-82.3263709
United States,Nantucket, MA,41.2834704,34059,-70.099451
United States,Morehead, KY,38.1839705,34060,-83.4326841
United States,Lake Forest, CA,33.6469437,34061,-117.6861023
United States,Keller, TX,32.9341893,34062,-97.229298
United States,Camarillo, CA,34.2163937,34064,-119.0376023
United States,Garden City, MI,42.3255928,34065,-83.3310422
United States,Brier, WA,47.7845419,34067,-122.2742948
United States,,,38.55810719999999,34068,-91.01208779999999
United States,Ruidoso, NM,33.3672525,34070,-105.6588485
United States,Montecito, CA,34.4366626,34071,-119.6320753
United States,Middletown, OH,39.5150576,34073,-84.39827629999999
United States,Clinton Township, MI,42.5868882,34074,-82.9195514
United States,Gainesville, VA,38.7956706,34075,-77.6138802
United States,Glenwood Springs, CO,39.5505376,34076,-107.3247762
United States,Dover, OH,40.5206198,34077,-81.4740054
United States,Flemington, NJ,40.5123258,34078,-74.85933179999999
United States,Niantic, CT,41.3253756,34079,-72.1931338
United States,Hinsdale, IL,41.8008642,34080,-87.9370052
United States,Vernon, NJ,,34081,
United States,West Lafayette, IN,40.4258686,34082,-86.90806549999999
United States,Selden, NY,,34083,
United States,Cartersville, GA,34.1650972,34085,-84.7999382
United States,Iowa Falls, IA,42.51988679999999,34087,-93.26457409999999
United States,Lake Elsinore, CA,33.6680772,34090,-117.3272615
United States,Ada, OK,34.774531,34092,-96.6783449
United States,Hoffman Estates, IL,42.0629915,34093,-88.12271989999999
United States,Worland, WY,44.01690139999999,34095,-107.9553721
United States,Toms River, NJ,39.9537359,34096,-74.1979576
United States,Tecumseh, OK,35.2578498,34097,-96.9366888
United States,Satellite Beach, FL,28.1761233,34098,-80.59005189999999
United States,Mesquite, NV,36.80553099999999,34099,-114.06719
United States,Centerville, UT,,34100,
United States,Muncie, IN,40.1933767,34101,-85.3863599
United States,Cedarhurst, NY,40.6228819,34102,-73.7242983
United States,Marshall, IL,39.3914252,34103,-87.6936384
United States,Spearville, KS,37.8500191,34104,-99.75679319999999
United States,Wheaton, IL,41.8661403,34110,-88.1070127
United States,Cedarburg, WI,43.2966716,34112,-87.9875898
United States,Woodstock, VA,38.8817784,34113,-78.50584289999999
United States,Odessa, FL,28.1793926,34114,-82.5579537
United States,Cadiz, KY,36.8650496,34121,-87.835295
United States,Tyngsborough,,42.6766696,34124,-71.4244224
United States,Cannon Falls, MN,44.5069113,34127,-92.905484
United States,Farmingdale, NY,40.7325997,34129,-73.4454009
United States,New Richmond, WI,45.1230213,34131,-92.5365865
United States,Discovery Bay, CA,37.9085357,34133,-121.6002291
United States,Spring Hill, TN,35.751179,34135,-86.9300023
United States,California, MD,38.3004029,34156,-76.5074542
United States,New Eagle, PA,40.2078486,34159,-79.9469943
United States,Barnstable, MA,41.7003208,34164,-70.3002024
United States,Dixon, IL,41.8389213,34168,-89.47954779999999
United States,Levittown, PA,40.1551096,34170,-74.8287747
United States,Acton, MA,42.4850931,34177,-71.43284
United States,Magnolia, AR,,34179,
United States,Greenwood, IN,39.6136578,34181,-86.10665259999999
United States,La Grange Park, IL,41.8347535,34193,-87.86172599999999
United States,Brentwood, TN,36.0331164,34213,-86.78277720000001
United States,Port St Joe, FL,29.8118757,34215,-85.30297399999999
United States,Beverly, MA,42.5584283,34216,-70.880049
United States,Gunnison, CO,38.5458246,34220,-106.9253207
United States,High Ridge, MO,38.4589432,34222,-90.5365126
United States,Guadalajara,,20.6734435,34231,-103.3669925
United States,Upper Marlboro, MD,38.8159473,34238,-76.74969089999999
United States,Hanscom AFB, MA,42.45723100000001,34240,-71.2766852
United States,Seagoville, TX,32.6395776,34245,-96.53832279999999
United States,Canoga Park, CA,34.208254,34249,-118.6058609
United States,Lock Haven, PA,,34252,
United States,Fairplay, CO,39.2247125,34254,-106.0019618
United States,Lunenburg, MA,42.5945273,34259,-71.7245035
United States,Shelby, NC,35.2923513,34260,-81.5356463
United States,Snellville, GA,33.857328,34262,-84.0199108
United States,Spanish Fork, UT,40.114955,34272,-111.654923
United States,Pittsfield, IL,39.6078254,34275,-90.8051289
United States,Pooler, GA,32.115481,34280,-81.2470574
United States,Rincon, GA,32.2947732,34281,-81.2353612
United States,Elizabeth City, NC,36.2946008,34289,-76.2510461
United States,Germantown, WI,43.2286174,34294,-88.1103691
United States,Harrison, AR,36.2297936,34295,-93.1076765
United States,Richland, WA,46.2856907,34296,-119.2844621
United States,Yardley, PA,40.245664,34300,-74.8459972
United States,Gresham, OR,45.5059203,34311,-122.4486119
United States,Perry, GA,32.4582065,34312,-83.7315723
United States,Mesquite, TX,32.76679550000001,34318,-96.5991593
United States,Foster City, CA,,34320,
United States,Newnan, GA,33.3806716,34324,-84.79965729999999
United States,Westcliffe, CO,38.1347219,34325,-105.4658353
United States,Cave Creek, AZ,33.8333716,34326,-111.9507042
United States,Kent, OH,,34328,
United States,Effingham, IL,,34329,
United States,Stockholm, ME,47.0422642,34330,-68.1394756
United States,Willoughby, OH,41.6397696,34331,-81.4065011
United States,Hopkins, MN,44.9260794,34332,-93.4044187
United States,Fowler, IN,40.6167044,34333,-87.3208518
United States,Beach park, IL,42.4222435,34334,-87.85729549999999
United States,Bethel, AK,60.7922222,34335,-161.7558334
United States,Downey, CA,33.9401088,34336,-118.1331593
United States,Catonsville, MD,39.2720509,34337,-76.73191609999999
United States,Blackfoot, ID,43.19047090000001,34338,-112.3449773
United States,Farmington, UT,40.9804999,34339,-111.8874392
United States,Eastsound, WA,48.696654,34341,-122.9061068
United States,Lakewood Township, NJ,40.08212899999999,34350,-74.2097014
United States,Edmond, OK,35.6528323,34359,-97.47809540000002
United States,Walden, NY,41.5612048,34363,-74.18848059999999
United States,Buckeye, AZ,,34368,
United States,Dayton, NV,39.2371353,34376,-119.5929521
United States,Moberly, MO,39.4183689,34378,-92.43823669999999
United States,Putnam, CT,41.90460119999999,34384,-71.8689917
United States,Tipton, CA,36.0593973,34389,-119.3120577
United States,Winslow, AZ,,34391,
United States,Huntsville, TX,30.7235263,34393,-95.55077709999999
United States,Saint Charles, IL,41.9141945,34396,-88.3086867
United States,Parkville, MD,,34405,
United States,Evans, GA,33.5337464,34406,-82.1306747
United States,Kingston, MA,41.9932752,34407,-70.7284785
United States,Cheboygan, MI,45.64695630000001,34412,-84.4744795
United States,Garberville, CA,40.1000828,34413,-123.7949199
United States,Dwight, IL,41.0944767,34418,-88.42505969999999
United States,Farmingville, NY,40.8312096,34419,-73.029552
United States,Wylie, TX,33.0151201,34420,-96.5388789
United States,Sinclairville, NY,42.2639471,34421,-79.2586563
United States,Telford, PA,,34423,
United States,Dublin, TX,32.085143,34425,-98.3419882
United States,Tewksbury, MA,,34448,
United States,Keene, NH,42.933692,34449,-72.2781409
United States,Conneaut, OH,41.9475551,34450,-80.5542409
United States,Coventry, RI,41.6885978,34451,-71.5642076
United States,Brownsburg, IN,39.8433769,34453,-86.39777350000001
United States,Corvallis, OR,44.5645659,34457,-123.2620435
United States,Covington, LA,30.4754702,34459,-90.1009108
United States,Riverdale, NJ,40.9939865,34464,-74.3034823
United States,Seal Beach, CA,33.7414085,34465,-118.1047682
United States,Eagle River, AK,61.3293186,34466,-149.56805
United States,Highland Charter Township, MI,42.6380014,34476,-83.6175677
United States,Harpers Ferry, WV,39.3253786,34479,-77.7388818
United States,Jacksonville, AL,33.8137125,34481,-85.76135359999999
United States,Paris, KY,38.2097987,34485,-84.2529869
United States,Milwaukie, OR,45.4462305,34489,-122.6392606
United States,Elizabethton, TN,36.3487196,34494,-82.21068760000001
United States,Mount Pleasant, TX,33.1567863,34509,-94.96826899999999
United States,Hot Springs, AR,34.5037004,34513,-93.0551795
United States,South Beloit, Il,,34517,
United States,Hell, MI,,34519,
United States,Pottsville, PA,40.6856456,34522,-76.195499
United States,Quincy, IL,39.9356016,34523,-91.4098726
United States,Brentwood, CA,37.931868,34526,-121.6957863
United States,Marion, IL,37.7306054,34529,-88.9331256
United States,Largo, FL,27.9094665,34534,-82.7873244
United States,Ironton, OH,38.5367471,34545,-82.6829406
United States,West Orange, NJ,40.7985699,34550,-74.23908279999999
United States,Pinedale, WY,42.8678809,34554,-109.8633501
United States,Los Santos, NV,36.2543026,34557,-115.2215766
United States,Rome, GA,34.257038,34559,-85.1646726
United States,Wenatchee, WA,47.4234599,34563,-120.3103494
United States,Denison, IA,42.024988,34564,-95.3588867
United States,Kansas City, KS,39.106666666667,34571,-94.676388888889
United States,Commerce, MI,42.5750853,34573,-83.48823469999999
United States,Helena, AR,34.5291,34574,-90.58999999999999
United States,Poplar Bluff, MO,36.7569994,34575,-90.392888
United States,Attleboro, MA,,34584,
United States,Gilbert, AZ,33.3528264,34585,-111.789027
United States,Ortonville, MI,42.8522506,34587,-83.4430002
United States,Breckenridge,TX,32.7556768,34608,-98.90228979999999
United States,Wickett, TX,31.5701328,34609,-103.0009898
United States,Everett, MA,42.40843,34610,-71.0536625
United States,Ho-Ho-Kus, NJ,,34611,
United States,Eatontown, NJ,40.2962222,34620,-74.0509725
United States,Wailuku, HI,20.8911111,34626,-156.5047222
United States,Townsend, MT,,34639,
United States,St. Cloud, MN,45.553888888889,34645,-94.170277777778
United States,Safety Harbor, FL,27.9908529,34659,-82.6931553
United States,Garden City, NY,40.7267682,34660,-73.6342954
United States,Cowpens, SC,35.0167918,34664,-81.8039916
United States,Elkton, VA,38.4079042,34665,-78.6236277
United States,Meridian, MS,32.3643098,34667,-88.703656
United States,Lemon Grove, CA,32.7425516,34673,-117.0314172
United States,Arcadia, CA,34.1397292,34688,-118.0353449
United States,Alameda, CA,37.7652065,34698,-122.2416355
United States,Northport, AL,33.229007,34708,-87.5772293
United States,Jefferson City, MO,38.57670170000001,34709,-92.1735164
United States,Gastonia, NC,35.262082,34711,-81.18730049999999
United States,Springfield, VT,43.2984078,34723,-72.4823117
United States,Willow Grove, PA,,34724,
United States,Sugar Land, TX,29.6196787,34731,-95.6349463
United States,Colton, CA,34.0739016,34733,-117.3136547
United States,Lancaster, SC,34.7204257,34753,-80.7709014
United States,Framingham, MA,42.279286,34755,-71.4161565
United States,Anthem, AZ,,34760,
United States,Truckee, CA,,34767,
United States,Elkland, PA,41.9861838,34771,-77.3108127
United States,Elmira, NY,42.0897965,34781,-76.8077338
United States,Grover Beach, CA,35.1216424,34813,-120.6212821
United States,Roxboro, NC,36.3937519,34816,-78.982788
United States,Williamsburg, KY,36.7434169,34825,-84.15965609999999
United States,Croydon, PA,40.08733290000001,34826,-74.9034996
United States,Pleasant Hill, CA,,34827,
United States,Knightdale, NC,35.7876515,34832,-78.4805563
United States,Auburn, CA,38.8965654,34838,-121.0768901
United States,Gatlinburg, TN,35.714259,34840,-83.5101638
United States,Burlington, MA,,34842,
United States,Leesburg, VA,,34844,
United States,Fall River, MA,41.7014912,34846,-71.1550451
United States,Apple Valley, MN,44.7319094,34853,-93.21772000000001
United States,Pawling, NY,,34863,
United States,Loganville, GA,33.8389977,34865,-83.90073819999999
United States,Alliance, OH,40.9153362,34869,-81.10593089999999
United States,Cumberland, ME,43.796573,34875,-70.2585205
United States,Metuchen, NJ,40.5431598,34884,-74.3632049
United States,South Portland, ME,,34887,
United States,Crawfordsville, IN,40.0411536,34894,-86.87445160000001
United States,Jerseyville, IL,,34901,
United States,Rome, NY,43.2128473,34904,-75.4557303
United States,Waunakee, WI,,34916,
United States,Maysville, KY,,34917,
United States,Escondido, CA,33.1192068,34924,-117.086421
United States,Bisbee, AZ,,34929,
United States,Forney, TX,,34940,
United States,Laporte, CO,40.62637110000001,34943,-105.1377578
United States,Southaven, MS,,34948,
United States,Columbus, NE,41.43029730000001,34949,-97.3593904
United States,Villa Rica, GA,,34954,
United States,Rosholt, SD,,34964,
United States,Burbank, CA,,34970,
United States,gideon mo,,36.4520057,34987,-89.9192558
United States,Washington, NC,,35004,
United States,Winfield, AL,33.928993,35006,-87.8172457
United States,Vidalia, GA,32.2176855,35019,-82.4134614
United States,Brookhaven, GA,,35039,
United States,Leander, TX,30.5788055,35040,-97.8530686
United States,Kingston, WA,47.7987072,35046,-122.4981921
United States,Pleasantville, NY,,35049,
United States,Stuart, FL,,35053,
United States,Baraboo, WI,,35066,
United States,Thiensville, WI,,35104,
United States,Floyd, VA,,35116,
United States,San Leandro, CA,,35123,
United States,Vista, CA,,35134,
United States,Parsons, KS,,35136,
United States,West Monroe, LA,,35141,
United States,Bothell, WA,,35145,
United States,Oxford, NC,,35147,
United States,Monrovia, CA,,35151,
United States,Wilmington, OH,,35154,
United States,Kennesaw, GA,,35157,
United States,Edgewood, KY,,35159,
United States,Williamston, NC,,35160,
United States,Woodland Park, CO,,35161,
United States,Lander, WY,,35187,
United States,Tullahoma, TN,,35190,
United States,Greenville, PA,,35191,
United States,Galax, VA,,35193,
United States,Temple Hills, MD,,35199,
United States,Tracy, CA,,35215,
United States,Palestine, TX,,35217,
United States,Severna Park, MD,,35224,
United States,Clarksville, IN,,35228,
United States,Yellow Springs, OH,,35236,
United States,Benton, LA,,35245,
United States,Georgetown, KY,,35257,
United States,Weston, FL,,35271,
United States,Evanston, WY,,35272,
United States,Lemont, IL,,35273,
United States,Payson, UT,,35274,
United States,Canyon Lake, CA,,35275,
United States,Burnsville, MN,,35293,
United States,Granby, CT,,35316,
United States,Los Alamos, NM,,35317,
United States,Bremen, KY,,35319,
United States,Greenfield, IN,,35322,
United States,Wethersfield, CT,,35323,
United States,Manchester, TN,,35328,
United States,Plainsboro, NJ,,35330,
United States,Rochester, PA,,35355,
United States,Downers Grove, IL,,35374,
United States,Valley View, TX,,35375,
United States,Susanville, CA,,35378,
United States,Camdenton, MO,,35381,
United States,Vernon Hills, IL,,35392,
United States,Castro Valley, CA,,35396,
United States,Mount Pleasant, SC,32.7940651,35404,-79.8625851
United States,Whitwell, TN,,35408,
United States,Granbury, TX,,35415,
United States,Hannibal, MO,,35417,
United States,Orange beach, AL,,35424,
United States,Bernalillo, NM,,35427,
United States,Charles Town, WV,,35431,
United States,Abington, MA,,35434,
United States,North Wales, PA,,35459,
United States,Chariton, IA,,35460,
United States,Chillicothe, OH,,35474,
United States,East Hampton, NY,,35477,
United States,Beaufort, SC,,35482,
United States,Smyrna, GA,,35487,
United States,Franklin, NC,,35489,
United States,Cooper City, FL,,35494,
United States,Palmetto, FL,,35495,
United States,Martin, TN,,35497,
United States,Fort Lee, NJ,,35506,
United States,Greene, NY,,35512,
United States,Simpsonville, SC,,35527,
United States,Worthington, OH,,35530,
United States,Manhattan Beach, CA,,35531,
United States,Lexington, MA,,35533,
United States,Robinson, IL,,35538,
United States,Tualtin,  OR,,35555,
United States,Malibu, CA,,35563,
United States,Cambridge, OH,,35571,
United States,Owasso, OK,,35574,
United States,Broomfield, CO,,35587,
United States,Glendale, AZ,,35589,
United States,,,,35592,
United States,Sedona, AZ,,35601,
United States,Lansdale, PA,,35602,
United States,Rushsylvania, OH,,35609,
United States,Ellicott City, MD,,35621,
United States,Akron, OH,41.0814447,3386,-81.5190053
United States,Albuquerque, NM,35.0844909,3387,-106.6511367
United States,Anaheim, CA,33.8352932,3388,-117.9145036
United States,Anchorage, AK,61.2180556,3389,-149.9002778
United States,Arlington, VA,38.8799697,3390,-77.1067698
United States,Atlanta, GA,33.7490987,3391,-84.3901849
United States,Austin, TX,30.267153,3393,-97.7430608
United States,Bakersfield, CA,35.3732921,3395,-119.0187125
United States,Baltimore, MD,39.2903848,3396,-76.6121893
United States,Baton Rouge, LA,30.4582829,3397,-91.1403196
United States,Birmingham, AL,33.5206608,3398,-86.80249
United States,Boise, ID,43.6187102,3399,-116.2146068
United States,Boston, MA,42.35892,3400,-71.05781
United States,Brookhaven, NY,40.7792653,3401,-72.9153827
United States,Buffalo, NY,42.8864468,3402,-78.8783689
United States,Charlotte, NC,35.2270869,3403,-80.8431267
United States,Chesapeake, VA,36.7682088,3404,-76.2874927
United States,Chicago, IL,41.8781136,3405,-87.6297982
United States,Cincinnati, OH,39.1014537,3406,-84.5124602
United States,Cleveland, OH,41.49932,3407,-81.6943605
United States,Colorado Springs, CO,38.8338816,3408,-104.8213634
United States,Columbus, OH,39.962208,3409,-83.000676
United States,Corpus Christi, TX,27.8005828,3410,-97.396381
United States,Dallas, TX,32.7761963,3411,-96.7968994
United States,Denver, CO,39.7391536,3412,-104.9847034
United States,Des Moines, IA,41.6005448,3413,-93.6091064
United States,Detroit, MI,42.331427,3414,-83.0457538
United States,Durham, NC,35.9940329,3415,-78.898619
United States,El Paso, TX,31.7587198,3416,-106.4869314
United States,Fort Wayne, IN,41.079273,3417,-85.1393513
United States,Fort Worth, TX,32.753177,3418,-97.3327459
United States,Fremont, CA,37.5482697,3419,-121.9885719
United States,Fresno, CA,36.7477272,3420,-119.7723661
United States,Garland, TX,32.912624,3421,-96.6388833
United States,Glendale, CA,34.1425078,3422,-118.255075
United States,Grand Rapids, MI,42.9633599,3423,-85.6680863
United States,Greensboro, NC,36.0726354,3424,-79.7919754
United States,Hempstead, NY,40.7062128,3425,-73.6187397
United States,Hialeah, FL,25.8670105,3426,-80.2914626814829
United States,Honolulu, HI,21.3069444,3427,-157.8583333
United States,Houston, TX,29.7604267,3428,-95.3698028
United States,Huntington, WV,38.4192496,3429,-82.445154
United States,Huntington Beach, CA,33.660297,3430,-117.9992265
United States,Indianapolis, IN,39.7683765,3431,-86.1580423
United States,Irving, TX,32.8140177,3432,-96.9488945
United States,Islip, NY,40.7298207,3433,-73.2103934
United States,Jackson, MS,32.2987573,3434,-90.1848103
United States,Jacksonville, FL,30.3321838,3435,-81.655651
United States,Jersey City, NJ,40.7281575,3436,-74.0776417
United States,Kansas City, MO,39.0997265,3437,-94.5785667
United States,Las Vegas, NV,36.1699412,3438,-115.1398296
United States,Lincoln, NE,40.8000554,3439,-96.6674005
United States,Little Rock, AR,34.7464809,3440,-92.2895948
United States,Long Beach, CA,33.8041667,3441,-118.1580556
United States,Los Angeles, CA,34.0522342,3442,-118.2436849
United States,Louisville, KY,38.2542376,3443,-85.759407
United States,Lubbock, TX,33.6720835,3444,-101.858005715545
United States,Madison, WI,43.0730517,3445,-89.4012302
United States,Memphis, TN,35.1495343,3446,-90.0489801
United States,Mesa, AZ,33.4151843,3447,-111.8314724
United States,Miami, FL,25.7742657,3448,-80.1936589
United States,Milwaukee, WI,43.0389025,3449,-87.9064736
United States,Minneapolis, MN,44.9799654,3450,-93.2638361
United States,Mobile, AL,30.6943566,3451,-88.0430541
United States,Modesto, CA,37.6930765,3452,-120.94778707347
United States,Montgomery, AL,32.3668052,3453,-86.2999689
United States,New Orleans, LA,29.9499323,3454,-90.0701156
United States,New York, NY,40.7127837,3455,-74.0059413
United States,Newark, NJ,40.735657,3456,-74.1723667
United States,Norfolk, VA,36.8507689,3457,-76.2858726
United States,Oakland, CA,37.8043637,3459,-122.2711137
United States,Oklahoma City, OK,35.4675602,3460,-97.5164276
United States,Omaha, NE,41.2523634,3461,-95.99798829999999
United States,Orlando, FL,28.5383355,3462,-81.3792365
United States,Oyster Bay, NY,40.8656543,3463,-73.5320685
United States,Paradise, NV,36.0971963,3464,-115.1466753
United States,Philadelphia, PA,39.952335,3465,-75.163789
United States,Phoenix, AZ,33.4483771,3466,-112.0740373
United States,Pittsburgh, PA,40.4406248,3467,-79.9958864
United States,Plano, TX,33.0198431,3468,-96.6988856
United States,Portland, OR,45.5230622,3469,-122.6764816
United States,Raleigh, NC,35.7804015,3470,-78.6390779
United States,Reno, NV,39.5296329,3471,-119.8138027
United States,Richmond, VA,37.542979,3472,-77.469092
United States,Riverside, CA,33.9533487,3473,-117.3961564
United States,Rochester, NY,43.1572851,3474,-77.6152141
United States,Sacramento, CA,38.5815719,3475,-121.4943996
United States,Saint Louis, MO,38.6272733,3476,-90.1978889
United States,Saint Paul, MN,44.9541667,3477,-93.1138889
United States,Saint Petersburg, FL,27.7708606,3478,-82.6792661
United States,Salt Lake City, UT,40.7607793,3479,-111.8910474
United States,San Antonio, TX,29.4241219,3480,-98.4936282
United States,San Bernardino, CA,34.1083449,3481,-117.2897652
United States,San Diego, CA,32.715738,3482,-117.1610838
United States,San Francisco, CA,37.775206,3483,-122.419209
United States,San Jose, CA,37.3382082,3484,-121.8863286
United States,Santa Ana, CA,33.7455731,3485,-117.8678338
United States,Scottsdale, AZ,33.4941704,3486,-111.9260519
United States,Seattle, WA,47.6038321,3487,-122.3300624
United States,Shreveport, LA,32.5251516,3488,-93.7501789
United States,Spokane, WA,47.6587802,3489,-117.4260466
United States,Stockton, CA,37.9577016,3490,-121.2907796
United States,Tacoma, WA,47.2528768,3491,-122.4442906
United States,Tampa, FL,27.9475216,3492,-82.4584279
United States,Toledo, OH,41.6639383,3493,-83.555212
United States,Tucson, AZ,32.2217429,3494,-110.926479
United States,Tulsa, OK,36.1539816,3495,-95.992775
United States,Virginia Beach, VA,36.8529263,3496,-75.977985
United States,Washington, DC,38.9071923,3497,-77.0368707
United States,Wichita, KS,37.68717609999999,3498,-97.33005299999999
United States,Winston-Salem, NC,36.0998596,3499,-80.244216
United States,Yonkers, NY,40.9312099,3500,-73.8987469
United States,Wilkes-Barre, PA,41.2459149,7400,-75.8813075
United States,Streator, IL,41.1210446,7401,-88.835256
United States,Imperial, CA,32.8475528,7410,-115.5694391
United States,Knoxville, TN,35.9606384,7420,-83.9207392
United States,Burlington, VT,44.4758825,7450,-73.212072
United States,Watertown, SD,44.8994088,7452,-97.1150732
United States,Wheeling, WV,40.0639616,7477,-80.7209149
United States,Boynton Beach, FL,26.5253491,7482,-80.0664309
United States,Malone, QC,44.8486596,7485,-74.29489830000001
United States,Stamford, CT,41.0534302,7487,-73.5387341
United States,Hilton Head Island, SC,32.216316,7488,-80.752608
United States,Yorktown, VA,37.2387556,7489,-76.5096731
United States,Savannah, GA,32.0835407,7493,-81.0998342
United States,Streamwood, IL,42.0255827,7499,-88.1784085
United States,Fairmont, WV,39.5288627,7500,-80.2321313
United States,Weslaco, TX,26.163229,7504,-98.0157796409572
United States,Russellville, AR,35.2784173,7509,-93.1337856
United States,Stevens Point, WI,44.5235792,7516,-89.574563
United States,Santa Fe, NM,35.6869752,7518,-105.937799
United States,Welch, WV,37.4328913,7526,-81.5845513
United States,Harrisburg, PA,40.2737002,7536,-76.8844179
United States,Helena, MT,46.5958056,7550,-112.0270306
United States,Lewiston, ME,44.100351,7551,-70.2147764
United States,Ashland, OH,40.8686675,7554,-82.3182178
United States,Joplin, MO,37.0842271,7557,-94.513281
United States,Santa Rosa, CA,38.4404674,7567,-122.7144314
United States,Leesburg, GA,31.7321156,7569,-84.1707423
United States,Ladson, SC,32.9857275,7570,-80.1098123
United States,Naples, FL,26.1420358,7572,-81.7948103
United States,Rapid City, SD,44.0805434,7574,-103.2310149
United States,Fontana, CA,34.0922335,7579,-117.435048
United States,Germantown, MD,39.416774,7580,-76.4585739
United States,Binghamton, NY,42.0986867,7585,-75.9179738
United States,Rock Island, IL,41.5094771,7586,-90.5787476
United States,Hartford, CT,41.7637111,7589,-72.6850932
United States,Urbana, IL,40.1105875,7590,-88.2072697
United States,Appleton, WI,44.2619309,7593,-88.4153847
United States,Fowlerville, MI,42.6605894,7595,-84.0730142
United States,Goose Creek, SC,32.9810059,7601,-80.0325867
United States,Las Cruces, NM,32.3199396,7605,-106.7636538
United States,Columbia, SC,34.0007104,7608,-81.0348144
United States,Utica, NY,43.100903,7613,-75.232664
United States,Newport, RI,41.4901024,7621,-71.3128285
United States,Paterson, NJ,40.9137053,7622,-74.1792284
United States,Concord, NH,43.2081366,7627,-71.5375718
United States,Goldsboro, NC,35.3848841,7632,-77.9927651
United States,Iowa City, IA,41.6611277,7633,-91.5301683
United States,State College, PA,40.7933949,7638,-77.8600012
United States,East Rutherford, NJ,40.833989,7640,-74.0970865
United States,Normal, IL,40.5142026,7641,-88.9906312
United States,Lafayette, IN,40.4167022,7642,-86.8752869
United States,Asheville, NC,35.6009452,7644,-82.554015
United States,Monterey, CA,36.6002378,7655,-121.8946761
United States,Weatherford, TX,32.7647075,7659,-97.6818919554255
United States,Morristown, TN,36.2139814,7660,-83.2948922
United States,Browns Mills, NJ,39.9726147,7661,-74.5829331
United States,Allegan, MI,42.5291989,7670,-85.8553031
United States,Natick, MA,42.2834298,7671,-71.3495032
United States,Plattsburgh, NY,44.6994873,7679,-73.4529124
United States,Topeka, KS,39.0558235,7683,-95.6890185
United States,Arlington, KY,36.7903347,7689,-89.012842
United States,Lancaster, PA,40.0378755,7696,-76.3055144
United States,Farmington, MO,37.7808846,7697,-90.4217895
United States,Albany, NY,42.6525793,7700,-73.7562317
United States,Versailles, MO,38.4314141,7704,-92.8410274
United States,Ojai, CA,34.448712,7709,-119.239444366026
United States,Dayton, OH,39.7589478,7711,-84.1916069
United States,Syracuse, NY,43.0481221,7720,-76.1474244
United States,Roanoke, VA,37.2709704,7721,-79.9414266
United States,Venice, FL,27.0997775,7722,-82.4542632
United States,Greenville, SC,34.8526176,7724,-82.3940104
United States,West Caldwell, NJ,40.849867,7731,-74.298336
United States,Cottonwood, AZ,34.7391876,7736,-112.0098791
United States,Fort Myers, FL,26.640628,7738,-81.8723084
United States,Springfield, MO,37.2089572,7754,-93.2922989
United States,East Providence, RI,41.8137116,7758,-71.3700545
United States,Wilmington, NC,34.2257255,7759,-77.9447102
United States,Watkins Glen, NY,42.369561,7761,-76.873069
United States,Peoria, AZ,33.5805955,7762,-112.2373779
United States,Kerrville, TX,30.0474332,7768,-99.1403189
United States,Neillsville, WI,44.559962,7770,-90.5962498
United States,Scranton, PA,41.408969,7771,-75.6624122
United States,Rutherford, NJ,40.826489,7777,-74.1068091
United States,Bolingbrook, IL,41.6986416,7779,-88.0683955
United States,Vancouver, WA,45.6387281,7793,-122.6614861
United States,Longview, TX,32.5007037,7801,-94.7404891
United States,Woodstock, GA,34.1014873,7805,-84.5193754
United States,Thousand Oaks, CA,34.1705609,7813,-118.8375937
United States,Bowling Green, KY,36.9903199,7819,-86.4436018
United States,Huntsville, AL,34.7303688,7822,-86.5861037
United States,Augusta, ME,44.3106241,7824,-69.7794897
United States,Redding, CA,40.5865396,7827,-122.3916754
United States,McHenry, IL,42.333355,7842,-88.2667534
United States,Bergen County, NJ,40.9262762,7845,-74.07701
United States,Walla Walla, WA,46.0645809,7847,-118.3430209
United States,Paola, KS,38.5722353,7853,-94.8791294
United States,Ann Arbor, MI,42.2708716,7859,-83.7263294
United States,Ypsilanti, MI,42.1966292,7860,-83.6135572
United States,Hope, AR,33.6670615,7868,-93.5915665
United States,Port St Lucie, FL,27.2758333,7892,-80.355
United States,Deerfield Beach, FL,26.3184123,7904,-80.0997657
United States,Santa Barbara, CA,34.4208305,7907,-119.6981901
United States,Rockford, IL,42.2711311,7909,-89.0939952
United States,Challis, ID,44.5046445,7924,-114.2317308
United States,Columbus, GA,32.4609764,7928,-84.9877094
United States,Portageville, MO,36.4253413,7929,-89.6995256
United States,Manchester, NH,42.9956397,7936,-71.4547891
United States,Gainesville, GA,34.2978794,7938,-83.8240663
United States,Winder, GA,33.9926097,7939,-83.7201709
United States,Marietta, GA,33.952602,7940,-84.5499327
United States,Cumming, GA,34.2073196,7941,-84.1401926
United States,Allentown, PA,40.6084305,7944,-75.4901833
United States,Rockville, MD,39.0839973,7945,-77.1527578
United States,Buford, GA,34.1206564,7948,-84.0043513
United States,Saint George, UT,37.0952778,7951,-113.5780556
United States,Indio, CA,33.7205771,7967,-116.2155619
United States,Princeton, NJ,40.3487181,7971,-74.6590472
United States,New Haven, CT,41.3081527,7973,-72.9281577
United States,Macon, GA,32.8406946,7982,-83.6324022
United States,Tupelo, MS,34.2576066,7985,-88.7033859
United States,Belen, NM,34.6628367,7987,-106.776416
United States,Idaho Falls, ID,43.4916514,7994,-112.0339645
United States,Olympia, WA,47.0378741,7998,-122.9006951
United States,San Angelo, TX,31.4637723,8010,-100.4370375
United States,Newport News, VA,37.0870821,8011,-76.4730122
United States,Lexington, KY,38.0317136,8014,-84.4951359
United States,Chico, CA,39.7284944,8019,-121.8374777
United States,Tallahassee, FL,30.4382559,8022,-84.2807329
United States,Fort Lauderdale, FL,26.1224386,8025,-80.13731740000001
United States,Nashville, TN,36.1626638,8029,-86.7816016
United States,Chevy Chase, MD,38.9807871,8038,-77.0823482
United States,Towanda, PA,41.767575,8051,-76.4427188
United States,Saint Johns, MI,43.001143,8056,-84.5591521
United States,West Palm Beach, FL,26.7153424,8064,-80.0533746
United States,New Paltz, NY,41.7475933,8067,-74.0868095
United States,Roy, UT,41.1616108,8071,-112.0263313
United States,Havana, IL,40.3000428,8083,-90.0609506
United States,Leawood, KS,38.966673,8086,-94.6169012
United States,Tiffin, OH,41.1144992,8103,-83.1779746
United States,Davenport, IA,41.5236437,8105,-90.5776367
United States,Neenah, WI,44.1858193,8106,-88.462609
United States,Fairborn, OH,39.8208925,8107,-84.0193789
United States,Athens, GA,33.955802,8108,-83.3823656
United States,Melbourne, AR,36.0595148,8113,-91.9084819
United States,Odessa, TX,31.8456816,8115,-102.3676431
United States,Westfield, MA,42.1250929,8116,-72.749538
United States,Hattiesburg, MS,31.3271189,8117,-89.2903392
United States,McAllen, TX,26.2260035,8121,-98.2373177181604
United States,Lexington Park, MD,38.2667917,8134,-76.4538411
United States,Palmdale, CA,34.5794343,8144,-118.1164613
United States,Northampton, MA,42.3250896,8148,-72.6412013
United States,Johnstown, PA,40.3267407,8151,-78.9219698
United States,Norwalk, CT,41.1175966,8153,-73.4078968
United States,Herndon, VA,38.9695545,8157,-77.3860976
United States,West Plains, MO,36.7281154,8177,-91.8523711
United States,Hermosa Beach, CA,33.8622366,8178,-118.3995194
United States,Palm Coast, FL,29.5849736,8181,-81.2078411
United States,Watseka, IL,40.7761465,8188,-87.7364218
United States,Batavia, IL,41.8500284,8191,-88.3125738
United States,Bloomington, IN,39.165325,8198,-86.5263857
United States,Waco, TX,31.549333,8201,-97.1466695
United States,Oelwein, IA,42.6733171,8206,-91.9135036
United States,Fredericksburg, VA,38.3031837,8216,-77.4605399
United States,Wallingford, CT,41.4510748,8218,-72.8220064
United States,Santa Clarita, CA,34.42333,8222,-118.47111
United States,Plymouth, MI,42.3714253,8247,-83.4702132
United States,Ashland, MA,42.261111,8268,-71.463889
United States,Parsippany-Troy Hills, NJ,40.8578772,8271,-74.4259866
United States,Woodbridge, NJ,40.5575986,8273,-74.2846022
United States,Gadsden, AL,34.014264,8278,-86.0066386
United States,Stanford, CA,37.4266268,8279,-122.170113702442
United States,Bath, NY,42.3370164,8280,-77.3177577
United States,Bremerton, WA,47.57,8294,-122.6525
United States,Hope Mills, NC,34.9704419,8296,-78.9453056
United States,Duluth, MN,46.7866719,8301,-92.1004852
United States,Eldon, MO,38.3483636,8315,-92.5815759
United States,Brunswick, GA,31.1499528,8320,-81.4914894
United States,Oxnard, CA,34.1975048,8324,-119.1770516
United States,Blytheville, AR,35.9272953,8330,-89.9189753
United States,Sioux Falls, SD,43.5499749,8331,-96.700327
United States,Springfield, MA,42.1014831,8343,-72.589811
United States,Kenosha, WI,42.5847425,8358,-87.8211854
United States,Irvine, CA,33.6839473,8366,-117.7946942
United States,Dennison, OH,40.3933994,8367,-81.3337215
United States,Woodbury, NY,40.8256545,8376,-73.4676225
United States,Barnegat, NJ,39.7649223,8383,-74.2693297
United States,College Station, TX,30.627977,8396,-96.3344068
United States,Decatur, IL,39.8403147,8399,-88.9548001
United States,Aurora, IL,41.7605849,8400,-88.3200715
United States,Westminster, CA,33.7513419,8402,-117.9939921
United States,Evansville, IN,37.9715592,8405,-87.5710898
United States,Providence, RI,41.8239891,8406,-71.4128343
United States,West Frankfort, IL,37.8985966,8412,-88.9233622
United States,Springfield, IL,39.7817213,8414,-89.6501481
United States,Kokomo, IN,40.486427,8430,-86.1336033
United States,Gardnerville, NV,38.9412959,8434,-119.7496216
United States,Watertown, NY,43.9747838,8435,-75.9107565
United States,Chattanooga, TN,35.0456297,8438,-85.3096801
United States,Hanover, NH,43.7022928,8441,-72.2895353
United States,Bellingham, WA,48.7595529,8448,-122.4882249
United States,Tempe, AZ,33.4255104,8449,-111.9400054
United States,Long Branch, NJ,40.3042778,8459,-73.9923596
United States,Williamsburg, VA,37.2707028,8461,-76.7074502
United States,Springfield, VA,38.7892801,8473,-77.1872036
United States,Lawrenceville, GA,33.9562149,8474,-83.9879625
United States,Saddle Brook, NJ,40.898988,8492,-74.0926418
United States,High Point, NC,35.9556923,8496,-80.0053176
United States,Martha's Vineyard, MA,41.4167799,8497,-70.616139
United States,Texarkana, AR,33.4417915,8499,-94.0376881
United States,Lawrence, KS,38.9716689,8510,-95.2352501
United States,Westhampton Beach, NY,40.8093799,8511,-72.6458277
United States,Marion, AR,36.1684034,8515,-92.4567272
United States,De Witt, NE,40.3936136,8516,-96.922806
United States,Charleston, SC,32.7765656,8539,-79.9309216
United States,Fort Collins, CO,40.5852602,8543,-105.084423
United States,Baytown, TX,29.7355047,8551,-94.9774274
United States,Kingwood, WV,39.4717557,8571,-79.6833884
United States,Lake Charles, LA,30.2265949,8579,-93.2173759
United States,Paris, TX,33.6609389,8587,-95.555513
United States,Batesville, MS,34.3114982,8589,-89.9442567
United States,Ventura, CA,34.2746405,8601,-119.2290053
United States,Summersville, WV,38.2812203,8621,-80.8525981
United States,Basin, WY,44.3799556,8632,-108.038989
United States,Medford, OR,42.3265152,8633,-122.8755949
United States,Ridgecrest, CA,35.6224561,8634,-117.6708966
United States,Fairfield, ME,44.5883989,8638,-69.5986567
United States,Highland, CA,34.1283442,8639,-117.2086513
United States,Wayland, NY,42.5678449,8644,-77.5897139
United States,Wisconsin Dells, WI,43.6274794,8649,-89.7709579
United States,Rogers, AR,36.3320196,8651,-94.1185366
United States,Libertyville, IL,42.2830786,8657,-87.9531303
United States,Zanesville, OH,39.9403453,8665,-82.0131924
United States,Reading, PA,40.3356483,8666,-75.9268747
United States,Balch Springs, TX,32.7287413,8669,-96.6227714
United States,Middlesex, NJ,40.572603,8676,-74.4926541
United States,Fairfax, VA,38.8462236,8684,-77.3063733
United States,Lahaina, HI,20.8870625,8687,-156.676034915378
United States,Royersford, PA,40.1842688,8697,-75.5379639
United States,Marshfield, WI,44.6688524,8703,-90.1717987
United States,Aspen, CO,39.1910983,8709,-106.8175387
United States,Osceola, WI,45.3205199,8714,-92.7049303
United States,Portland, ME,43.661471,8722,-70.2553259
United States,Carbondale, IL,37.7272727,8729,-89.2167501
United States,Rochester, MN,44.0216306,8751,-92.4698992
United States,Grand Forks, ND,47.9252568,8754,-97.0328547
United States,Santa Cruz, CA,36.9741171,8766,-122.0307963
United States,Fargo, ND,46.8771863,8779,-96.7898034
United States,Wausau, WI,44.9591352,8781,-89.6301221
United States,Crestline, CA,34.2419509,8800,-117.2855993
United States,Woodbridge, VA,38.6581722,8802,-77.2497049
United States,Morenci, AZ,33.0497222,8805,-109.3277778
United States,Santa Monica, CA,34.0194543,8807,-118.4911912
United States,Biloxi, MS,30.3960318,8821,-88.8853078
United States,Clayton, GA,34.8781479,8823,-83.4009933
United States,Whitefield, ME,44.1700735,8836,-69.6253223
United States,Hazard, KY,37.24954,8840,-83.1932284
United States,Spring Valley, IL,41.3275352,8843,-89.1998076
United States,Manassas, VA,38.7509488,8849,-77.4752667
United States,Stanfield, NC,35.2334772,8865,-80.4270094
United States,East Orange, NJ,40.767323,8866,-74.2048677
United States,Williamsport, PA,41.2493292,8868,-77.0027671
United States,Paso Robles, CA,35.6322789,8873,-120.664187
United States,Midland, MI,43.6155825,8893,-84.2472116
United States,Mount Pleasant, MI,43.5978075,8901,-84.7675139
United States,Martinsburg, WV,39.4562099,8903,-77.9638869
United States,Melbourne, FL,28.0836269,8904,-80.6081089
United States,Pensacola, FL,30.421309,8910,-87.2169149
United States,Alexandria, VA,38.8048355,8914,-77.0469214
United States,Kalamazoo, MI,42.2917069,8916,-85.5872286
United States,New Bedford, MA,41.6362152,8917,-70.934205
United States,Monroe, MI,41.9164343,8921,-83.3977101
United States,Tega Cay, SC,35.024312,8923,-81.0278546
United States,Amherst, VA,37.5851412,8926,-79.0514134
United States,West Chester, PA,39.9606643,8928,-75.6054882
United States,Chesterfield, MI,42.66278,8938,-82.8425
United States,Valparaiso, IN,41.4730948,8957,-87.0611412
United States,Bradenton, FL,27.4989278,8960,-82.5748194
United States,Albert Lea, MN,43.6485683,8979,-93.3624319
United States,Marquette, MI,46.5475825,8988,-87.3955954
United States,Trenton, NJ,40.2170575,8989,-74.7429463
United States,Price, UT,39.5994095,8996,-110.8107148
United States,Albany, OR,44.6365107,9002,-123.1059282
United States,Tuscaloosa, AL,33.2098407,9005,-87.5691735
United States,Shepherdstown, WV,39.4300996,9012,-77.8041609
United States,Annapolis, MD,38.9784453,9016,-76.4921829
United States,Sheboygan, WI,43.7508284,9020,-87.71453
United States,Pocatello, ID,42.8713032,9026,-112.4455344
United States,Thorne Bay, AK,55.6877778,9027,-132.5222221
United States,Kennewick, WA,46.2112458,9031,-119.1372338
United States,Newport Beach, CA,33.6189101,9032,-117.9289469
United States,Trumbull, CT,41.2600905499227,9035,-73.2081424177386
United States,Danville, CA,37.8215929,9036,-121.9999606
United States,Killeen, TX,31.1171194,9039,-97.7277959
United States,Myrtle Beach, SC,33.6890603,9044,-78.8866943
United States,Van Buren, AR,35.436756,9045,-94.348268
United States,Greenbriar, AR,35.2339712,9049,-92.387655
United States,Geneva, IL,41.8875281,9056,-88.3053525
United States,Laurel, MS,31.6940509,9074,-89.1306124
United States,Crystal Lake, IL,42.2411344,9079,-88.3161965
United States,Richmond, KY,37.7478572,9080,-84.2946539
United States,Dothan, AL,31.2232313,9081,-85.3904888
United States,Prescott, AZ,34.5400242,9094,-112.4685025
United States,Erie, PA,42.1292241,9096,-80.085059
United States,Bismarck, ND,46.8083268,9103,-100.7837392
United States,Mapleton, UT,40.1302338,9110,-111.5785281
United States,Hagerstown, MD,39.6419219,9113,-77.7202641
United States,Ville Platte, LA,30.6879749,9115,-92.2715157
United States,Fort Dodge, IA,42.4974694,9119,-94.1680158
United States,Southampton, NY,40.884267,9122,-72.3895296
United States,Ames, IA,42.02335,9124,-93.625622
United States,York, PA,39.9625984,9125,-76.727745
United States,Arlington, TX,32.735687,9131,-97.1080656
United States,Shamokin, PA,40.7889746,9137,-76.5588473
United States,Prophetstown, IL,41.6714198,9140,-89.9362249
United States,Red Bank, NJ,40.3470543,9150,-74.0643065
United States,Silver Spring, MD,38.9906657,9151,-77.026088
United States,Cerritos, CA,33.8668925,9165,-118.049503357446
United States,Greenville, TX,33.1384488,9166,-96.1108066
United States,Mount Pleasant, PA,40.1489607,9178,-79.5411497
United States,Charlottesville, VA,38.0293059,9181,-78.4766781
United States,West Hartford, CT,41.7620842,9182,-72.7420151
United States,Jackson, WY,43.4799291,9184,-110.7624282
United States,Youngstown, OH,41.0997803,9194,-80.6495194
United States,London, KY,37.1289771,9196,-84.0832646
United States,Morristown, NJ,40.7967667,9199,-74.4815438
United States,Banning, CA,33.9255685,9209,-116.875289
United States,Murfreesboro, TN,35.8456213,9217,-86.39027
United States,Augusta, GA,33.4734978,9221,-82.0105148
United States,Eugene, OR,44.0520691,9224,-123.0867536
United States,Klamath Falls, OR,42.224867,9227,-121.7816704
United States,Pomona, CA,34.0552267,9234,-117.7523048
United States,Breckenridge, CO,39.4816537,9238,-106.0383518
United States,Stillwater, OK,36.1156071,9244,-97.0583681
United States,West Greenwich, RI,41.6226185,9245,-71.6657892
United States,Fayetteville, NC,35.0526641,9246,-78.8783585
United States,Anaconda, MT,46.1262998,9253,-112.9478359
United States,Deer River, MN,47.3328773,9257,-93.793048
United States,Waynesville, MO,37.8286516,9260,-92.2007227
United States,Alpena, MI,45.0616794,9262,-83.4327528
United States,Ocala, FL,29.1871986,9266,-82.1400923
United States,Amarillo, TX,35.201967,9269,-101.813802901497
United States,Jonesboro, AR,35.8422967,9275,-90.704279
United States,Green Bay, WI,44.519159,9276,-88.019826
United States,Brecksville, OH,41.3197763,9279,-81.6267904
United States,Redmond, WA,47.6694141,9281,-122.1238767
United States,Neosho, MO,36.8689554,9288,-94.367996
United States,Owensboro, KY,37.7719074,9294,-87.1111676
United States,Rhinelander, WI,45.6366228,9296,-89.4120753
United States,Flanders, NJ,40.8456549,9299,-74.6948843
United States,Morrisville, PA,40.2114977,9304,-74.7879399
United States,Bentonville, AR,36.3728538,9306,-94.2088172
United States,Anderson, SC,34.5034394,9314,-82.6501332
United States,Big Spring, TX,32.2370195,9319,-101.477732453279
United States,Dunellen, NJ,40.5892696,9321,-74.4718201
United States,Adelanto, CA,34.5827699,9325,-117.409215
United States,Warner Robins, GA,32.5795895,9328,-83.6680571630258
United States,Columbia, MO,38.9517053,9331,-92.3340724
United States,Terre Haute, IN,39.4667034,9332,-87.4139092
United States,Saint Clair (St Clair), MI,42.9426715,9336,-82.6283554
United States,Perkasie, PA,40.372048,9350,-75.292676
United States,Jacksonville, NC,34.7540524,9354,-77.4302414
United States,Bowie, MD,39.0067768,9358,-76.7791365
United States,Clearwater, FL,27.9658533,9363,-82.8001026
United States,,,42.1112075,9364,-71.6661783
United States,Brea, CA,33.9181945,9371,-117.8994423
United States,Vallejo, CA,38.1040864,9373,-122.2566367
United States,Spring Hill, FL,28.4815026204595,9375,-82.5388063994373
United States,Bend, OR,44.0581728,9378,-121.3153096
United States,Columbia, MD,39.2151996,9380,-76.8546725
United States,Charleston, WV,38.3498221,9384,-81.6326301
United States,Bradford, PA,41.7746685,9385,-76.5264613
United States,Yuma, AZ,32.7253249,9388,-114.624397
United States,Waterloo, IA,42.4927641,9389,-92.3429631
United States,Easton, MD,38.7742826,9391,-76.0763305
United States,Shelby Township, MI,43.6086194,9394,-86.3639633
United States,Winchester, VA,39.1856588,9400,-78.1633342
United States,Smithtown, NY,40.8559314,9401,-73.2006687
United States,Hilo, HI,19.685067,9406,-155.100536029642
United States,Merrillville, IN,41.4828144,9407,-87.3328139
United States,Coon Rapids, MN,45.1199652,9409,-93.2877277
United States,Fayetteville, AR,36.0694725,9410,-94.2054387225566
United States,Woodville, MS,31.104619,9432,-91.2995551
United States,Beach Haven, NJ,39.5592848,9451,-74.2431963
United States,Midland, TX,32.0238968,9455,-102.096630868789
United States,Missoula, MT,46.8795445,9456,-113.921434492864
United States,Waukesha, WI,43.0116784,9462,-88.2314813
United States,Plymouth, IN,41.3436555,9474,-86.3097278
United States,Pullman, WA,46.7304625,9480,-117.164560812569
United States,Albany, GA,31.5785074,9481,-84.155741
United States,Billings, MT,45.7874957,9498,-108.49607
United States,Cedar Rapids, IA,41.9758872,9504,-91.6704053
United States,Campbellsville, KY,37.3433974,9509,-85.3419069
United States,Sulphur Springs, TX,33.1414155,9515,-95.5979015981944
United States,Worcester, MA,42.2625932,9519,-71.8022934
United States,Toronto, ON,39.7817032,9528,-87.4955747
United States,Costa Mesa, CA,33.6635605,9533,-117.919587273982
United States,Yorkville, IL,38.8979586,9538,-123.2144507
United States,Simi Valley, CA,34.2657598,9541,-118.731346417536
United States,Beaverton, OR,45.4871723,9550,-122.8037804
United States,Chelan, WA,47.8409698,9553,-120.0164591
United States,Lima, OH,40.742551,9555,-84.1052256
United States,Lafayette, LA,30.2240897,9568,-92.0198427
United States,Coeur d'Alene, ID,47.7164555,9579,-116.821605560989
United States,Saint Cloud, MN,45.56739035,9582,-94.1308714656473
United States,Muskegon, MI,43.2341813,9585,-86.2483921
United States,Florence, AL,34.79981,9586,-87.677251
United States,Greenwich, CT,41.0264862,9589,-73.6284598
United States,Glasgow, MT,48.1969589,9590,-106.6367174
United States,Verona, VA,38.2020774,9592,-79.0083646
United States,Newton, MA,42.3370414,9600,-71.2092214
United States,Montpelier, VT,44.260015,9605,-72.5753599
United States,Naperville, IL,41.7824837,9606,-88.1495225
United States,Mountain View, CA,38.0091199337357,9610,-122.116837106443
United States,Howard, KS,37.4703117,9611,-96.2636066
United States,Pleasanton, CA,37.6624312,9616,-121.8746789
United States,Lafayette, CO,42.6632391,9626,-90.1317754
United States,Marlborough, MA,42.3459271,9630,-71.5522874
United States,Waycross, GA,31.2135511,9633,-82.3540178
United States,South Yarmouth, MA,41.6667779,9638,-70.1847414
United States,Paducah, KY,37.0833893,9649,-88.6000478
United States,Atascadero, CA,35.4863115,9650,-120.682878176106
United States,Auburn, AL,32.546065,9659,-85.4188150138231
United States,Grandview, WA,46.2509653,9680,-119.9017049
United States,Yuba City, CA,39.1404477,9681,-121.6169108
United States,Conway, AR,35.0886963,9685,-92.4421011
United States,Overland Park, KS,38.9822282,9686,-94.6707917
United States,Dillingham, AK,59.667355,9689,-158.186196284031
United States,Edison, NJ,40.5187154,9693,-74.4120953
United States,North Platte, NE,41.1238873,9698,-100.7654232
United States,Jackson, TN,35.614517,9703,-88.813947
United States,Detroit Lakes, MN,46.8171809,9712,-95.8453253
United States,Herrin, IL,37.8031056,9715,-89.0275744
United States,Kearney, NE,40.4906216,9726,-98.9472344
United States,San Luis Obispo, CA,35.2827525,9731,-120.6596156
United States,Aberdeen, SD,45.4646985,9737,-98.4864829
United States,Bemidji, MN,47.4786541,9739,-94.890802
United States,Roseburg, OR,43.216505,9741,-123.3417381
United States,Deltona, FL,28.9005446,9747,-81.2636738
United States,Bismarck, AR,34.3162035,9755,-93.1707339
United States,Kernersville, NC,36.1198589,9757,-80.0736533
United States,Mount Vernon, NY,40.9125992,9759,-73.8370786
United States,Laramie, WY,41.3113669,9760,-105.5911007
United States,Peoria, IL,40.6938609,9764,-89.5891008
United States,Centreville, VA,38.8403909,9767,-77.4288769
United States,Statesboro, GA,32.4020805,9775,-81.7569446513723
United States,San Marcos, TX,29.8826436,9776,-97.9405828
United States,Gainesville, FL,29.651907,9782,-82.3247976
United States,Berkeley Heights, NJ,40.6834349,9791,-74.442653
United States,Vadnais Heights, MN,45.0574659,9792,-93.0738306
United States,Berkeley, CA,37.8708789,9798,-122.2728247
United States,Gulfport, MS,30.3674198,9799,-89.0928155
United States,New Iberia, LA,30.0035365,9800,-91.8187285
United States,Chapel Hill, NC,35.9131996,9801,-79.0558445
United States,Spruce Pine, NC,35.9147787,9806,-82.066411
United States,Yanceyville, NC,36.4040273,9808,-79.3361314
United States,New Bern, NC,35.1084931,9819,-77.0441143
United States,Ripon, CA,37.743142,9823,-121.123892206662
United States,Collinsville, IL,38.6703267,9829,-89.9845476
United States,Lawton, OK,34.6086854,9836,-98.3903305
United States,Amenia, NY,41.8492599,9842,-73.5567919
United States,Wichita Falls, TX,33.9161075,9855,-98.5067371043467
United States,London, OH,39.8864493,9858,-83.448253
United States,Orem, UT,40.2975185,9860,-111.6944685
United States,Woodstock, NY,42.0409247,9868,-74.1181971
United States,Ithaca, NY,42.4396039,9872,-76.4968019
United States,Thomasville, GA,35.8826369,9873,-80.0819879
United States,Kidron, OH,40.7408894,9875,-81.7448536
United States,West Dundee, IL,42.0980812,9878,-88.2828581
United States,Windsor, CT,41.8525984,9880,-72.6437022
United States,Presque Isle, ME,46.681153,9886,-68.0158616
United States,Harlingen, TX,26.1906306,9889,-97.6961026
United States,Topping, VA,37.5881938,9892,-76.4743934
United States,Alton, IL,38.8906038,9901,-90.1842764
United States,Whitney, TX,31.951823,9904,-97.3214012
United States,Cape May Court House, NJ,39.076009,9910,-74.8129194864471
United States,Dickinson, ND,45.9874631,9911,-87.8864905
United States,Panama City, FL,30.1600827,9922,-85.6545729
United States,Brooklyn, NY,40.6501038,9925,-73.9495823
United States,Willow Spring, NC,35.5957129,9928,-78.7313999
United States,Rancho Palos Verdes, CA,33.7444613,9929,-118.3870173
United States,Wyandotte, MI,42.2016865,9940,-83.1495428
United States,Belvidere, IL,42.2583528,9948,-88.8416115
United States,Bourne, MA,41.7412166,9949,-70.5989196
United States,Fond du Lac, WI,43.777669,9950,-88.446951
United States,Zeeland, MI,42.8124349,9952,-86.0288167
United States,Everett, WA,47.9673056,9966,-122.2013998
United States,Janesville, MN,44.116078,9967,-93.7080044
United States,Georgetown, DE,38.68829,9974,-75.384222312984
United States,Abilene, TX,32.4838865,9975,-99.7156495680329
United States,Bellevue, WA,47.6144219,9978,-122.1923372
United States,Manistee, MI,44.3308044,9989,-86.0262043
United States,Sheridan, WY,44.7971939,10008,-106.9561792
United States,Lansing, MI,42.7337712,10015,-84.5553805
United States,Teaneck, NJ,40.8975992,10019,-74.0159727
United States,Wickliffe, OH,41.6053266,10023,-81.4534492
United States,Queens, NY,40.7498243,10027,-73.7976337
United States,Kelso, WA,46.1420334,10032,-122.9060318
United States,Pembroke Pines, FL,26.0236064,10043,-80.3412536198487
United States,Sarasota, FL,27.3364347,10048,-82.5306527
United States,Woodburn, OR,45.143731,10051,-122.8553725
United States,Carlsbad, NM,32.4206736,10077,-104.2288375
United States,Pittsfield, MA,42.4500846,10089,-73.2453824
United States,Kaunakakai, HI,21.0933333,10091,-157.0238889
United States,Yakima, WA,46.5967275,10107,-120.5296561
United States,San Dimas, CA,34.1066756,10109,-117.8067257
United States,Crescent City, CA,41.852958,10112,-124.149809424351
United States,Hayward, CA,37.6688205,10123,-122.0807964
United States,Carthage, MO,32.152834,10125,-94.3374334589878
United States,Malott, WA,48.2826495,10136,-119.7067271
United States,Woodland, WA,45.9109715,10139,-122.7408326
United States,Auburndale, FL,28.10810575,10143,-81.8037511421744
United States,Warren, PA,41.8119602,10160,-79.2654452
United States,International Falls, MN,48.6010491,10161,-93.4109824
United States,Cloquet, MN,46.7216102,10168,-92.4593566
United States,New Port Richey, FL,28.247111,10181,-82.7170240784753
United States,La Crosse, WI,43.8013556,10183,-91.2395807
United States,Wilmington, DE,39.7459468,10187,-75.546589
United States,Portsmouth, NH,43.0717552,10188,-70.7625532
United States,Butte, MT,45.9838436,10203,-112.5007277
United States,Martinsville, VA,36.6915262,10224,-79.8725386
United States,Grass Valley, CA,39.2289075,10227,-121.068590276735
United States,Lakeville, MN,44.6496868,10231,-93.24272
United States,Hays, KS,38.8791783,10233,-99.3267702
United States,Merrill, WI,45.1805223,10237,-89.683459
United States,Flagstaff, AZ,35.199458,10242,-111.6514259
United States,Tumwater, WA,47.0077652,10243,-122.9110785
United States,Tenino, WA,46.8567408,10245,-122.8502933
United States,Yelm, WA,46.9413877,10246,-122.6063902
United States,Lacey, WA,47.0263876,10247,-122.8072257
United States,Littlerock, WA,46.9017652,10248,-123.0179182
United States,Auburn, WA,47.3073905,10249,-122.229805
United States,Lakewood, WA,47.158114,10250,-122.476360070646
United States,Bucoda, WA,46.7977206,10251,-122.8684555
United States,Centralia, WA,46.7204489,10252,-122.9614303
United States,Puyallup, WA,47.1849009,10253,-122.2921406
United States,Ocean Shores, WA,46.9737027,10254,-124.1562772
United States,DuPont, WA,47.0990689,10255,-122.6375463
United States,Enumclaw, WA,47.2047793,10256,-121.9916371
United States,North Bend, WA,47.4938343,10257,-121.7862491
United States,Longview, WA,46.1427302,10258,-122.955641
United States,Forks, WA,47.9502219,10259,-124.3861648
United States,Rochester, WA,46.8236801,10260,-123.0834185
United States,Aberdeen, WA,46.9753708,10261,-123.8157218
United States,Buckley, WA,47.1622483,10262,-122.027746
United States,Airway Heights, WA,47.644611,10263,-117.5932728
United States,Chehalis, WA,46.6599653,10264,-122.9634322
United States,Mount Vernon, WA,48.4199991,10265,-122.3261139
United States,University Place, WA,47.2356536,10266,-122.5504041
United States,Zillah, WA,46.4020734,10267,-120.2619988
United States,Union Gap, WA,46.5573492,10268,-120.4750638
United States,Tukwila, WA,47.4630314,10269,-122.2558378
United States,Bainbridge Island, WA,47.65526,10270,-122.5350862
United States,Grand Coulee, WA,47.9415408,10271,-119.0033548
United States,Gig Harbor, WA,47.3259697,10272,-122.5878659
United States,Maytown, WA,46.8975987,10273,-122.9434704
United States,Salem, OR,44.9391565,10274,-123.033121
United States,Electric City, WA,47.9323735,10275,-119.0380781
United States,Arlington, WA,48.1810989,10276,-122.1389548
United States,Algona, WA,47.2784027,10278,-122.2542238
United States,SeaTac, WA,47.442905,10279,-122.2943872
United States,Shoreline, WA,47.7558895,10280,-122.341398159088
United States,Salina, KS,38.8402805,10283,-97.6114237
United States,Deerfield, IL,42.1711365,10289,-87.8445119
United States,Shippensburg, PA,40.0562262,10291,-77.5139074
United States,Patton, PA,40.6339561,10302,-78.6503006
United States,Bayonne, NJ,40.6687141,10315,-74.1143091
United States,Lake Geneva, WI,42.5916836,10317,-88.4334301
United States,Zephyrhills, FL,28.2412365,10322,-82.1852359251673
United States,Appomattox, VA,37.3719712,10323,-78.8028108
United States,Rochester, MI,42.680588,10333,-83.1338214
United States,Upland, CA,34.09751,10336,-117.6483876
United States,Oshkosh, WI,44.0177132,10338,-88.5389798
United States,Ashland, WI,46.5930765,10343,-90.8838706
United States,Christiansburg, VA,37.1298517,10349,-80.4089389
United States,Central Valley, NY,41.3317605,10350,-74.120978
United States,Manhattan, KS,39.1836082,10356,-96.5716694
United States,Cheyenne, WY,41.1399814,10358,-104.8202462
United States,Moscow, ID,46.7323875,10359,-117.0001651
United States,Rancho Cucamonga, CA,34.1063989,10369,-117.5931084
United States,Cambridge, MA,42.3750997,10377,-71.1056157
United States,Rehoboth Beach, DE,38.7209436,10379,-75.0760265
United States,Young Harris, GA,34.9331453,10383,-83.8471223
United States,Hobbs, NM,32.7026116,10385,-103.1360403
United States,Moline, IL,41.5067003,10388,-90.5151342
United States,Douglasville, GA,33.7514966,10390,-84.7477136
United States,Wakefield, MA,42.506484,10403,-71.0728306
United States,Greensburg, PA,40.3014581,10405,-79.5389289
United States,Cherry Hill, NJ,39.9348351,10414,-75.0307264
United States,Amargosa Valley, NV,36.4943257,10418,-116.4249462
United States,Renton, WA,47.481545,10425,-122.189811416667
United States,Montclair, NJ,40.8259332,10429,-74.2090344
United States,Warrenton, VA,38.7134515,10434,-77.7952712
United States,Atlantic City, NJ,39.3642852,10436,-74.4229351
United States,Athens, OH,39.3292396,10451,-82.1012555
United States,Morgantown, WV,39.629526,10453,-79.9558968
United States,Port Hadlock, WA,48.0317611,10455,-122.7582269
United States,Lihue, HI,21.9811111,10459,-159.3711111
United States,Bethesda, MD,38.9815532,10462,-77.1235052270305
United States,Lakeport, CA,39.0429506,10466,-122.9158293
United States,Leggett, CA,39.8657071,10474,-123.7141884
United States,Reston, VA,38.9584435,10481,-77.3582532
United States,Fort Atkinson, WI,42.9288944,10484,-88.8370509
United States,Congers, NY,41.150651,10492,-73.9454159
United States,Cumberland, MD,39.6528509,10495,-78.7624714
United States,Colby, KS,39.3958369,10505,-101.0523773
United States,Saint Joseph, MO,39.7686055,10513,-94.8466322
United States,Pagosa Springs, CO,37.2695661,10516,-107.0108163
United States,Monterey Park, CA,34.0512156,10531,-118.129229
United States,Pottsboro, TX,33.7864635,10551,-96.6777256680569
United States,Mansfield, OH,40.75839,10569,-82.5154471
United States,Clifton, NJ,40.8584328,10575,-74.1637553
United States,Tyler, TX,32.3304455,10578,-95.3073809670178
United States,Minersville, PA,40.6906451,10585,-76.2621697
United States,Ottumwa, IA,41.0200145,10587,-92.4112963
United States,Ellsinore, MO,36.9342189,10592,-90.7467876
United States,Cedar City, UT,37.6774769,10595,-113.0618931
United States,Lombard, IL,41.8800296,10597,-88.0078435
United States,Zion, IL,42.4461322,10601,-87.8328505
United States,Southbridge, MA,42.0750954,10604,-72.0334084
United States,Saginaw, MI,43.4200387,10605,-83.9490365
United States,Bluffton, OH,40.8953302,10611,-83.8888289
United States,Paris, AR,35.28687645,10612,-93.7354879210082
United States,Nacogdoches, TX,31.5970503,10613,-94.5927451
United States,McKinney, TX,33.1976496,10614,-96.6154471
United States,Norwich, CT,41.549491,10621,-72.0892280657633
United States,Boulder, CO,40.0149856,10622,-105.2705456
United States,Pikeville, KY,37.4792672,10623,-82.5187629
United States,White Lake Township, MI,42.6916964,10633,-83.5541098
United States,Palm Springs, CA,33.8345281,10647,-116.5389475
United States,Moss Point, MS,30.43022755,10656,-88.5191593758986
United States,Daytona Beach, FL,29.2108147,10657,-81.0228331
United States,Galesburg, IL,40.9478158,10658,-90.3712395
United States,Norwich, NY,42.531184,10659,-75.5235149
United States,Wesfield, NJ,40.6589912,10665,-74.3473717
United States,Key West, FL,24.5548029,10667,-81.7993906
United States,York, SC,34.9603293,10669,-81.1655408
United States,Sunnyvale, CA,37.3688301,10672,-122.0363496
United States,New Castle, PA,41.0036719,10675,-80.3470091
United States,Casper, WY,42.866632,10689,-106.313081
United States,Bar Harbor, ME,44.3875794,10701,-68.2039016
United States,Victorville, CA,34.5361067,10704,-117.2911565
United States,Clinton, IA,41.8444735,10706,-90.1887379
United States,Summerville, SC,33.0000142,10711,-80.1897921599919
United States,Greenville, NC,35.612661,10718,-77.3663538
United States,Shenandoah, IA,40.7655528,10721,-95.3722103
United States,Carson, CA,33.8314058,10738,-118.2820165
United States,Payson, AZ,34.2308684,10757,-111.3251355
United States,Sun Valley, ID,43.6962148,10762,-114.3530967
United States,Bozeman, MT,45.6799842,10764,-111.0446748
United States,Wyomissing, PA,40.329537,10765,-75.9652117
United States,Middletown, NJ,40.6439873,10769,-75.3324015
United States,Fairfield, CA,38.23362,10770,-122.076905389269
United States,Fort Scott, KS,37.8397626,10775,-94.7082951
United States,Adrian, MI,41.8975471,10778,-84.0371659
United States,Ranger, TX,32.46305,10779,-98.670714084774
United States,Lynchburg, VA,37.4137536,10783,-79.1422464
United States,Pacific Palisades, CA,34.0480643,10786,-118.5264706
United States,Avondale, AZ,33.4359181,10795,-112.3405052
United States,Ponca City, OK,36.7268289,10799,-97.0635154
United States,Visalia, CA,36.3302284,10800,-119.2920585
United States,Mooresville, NC,35.5707535,10802,-80.8183015200372
United States,Maui, HI,20.80299735,10807,-156.310788500472
United States,The Woodlands, TX,30.1734194,10808,-95.504686
United States,Bronx, NY,48.3518699,10809,-116.547416
United States,Bluefield, WV,37.252617,10812,-81.2712105
United States,North East, MD,39.6001132,10833,-75.9413327
United States,Lancaster, CA,34.6981064,10835,-118.1366153
United States,Jonesboro, LA,33.5215013,10836,-84.3538128
United States,Beckley, WV,37.7781702,10838,-81.1881557
United States,Des Plaines, IL,42.0415823,10844,-87.8873916
United States,Honesdale, PA,41.5767552,10846,-75.2587871
United States,Johnson City, TN,36.3134398,10847,-82.3534728
United States,Nashua, NH,42.7653662,10856,-71.467566
United States,College Park, MD,38.980666,10859,-76.9369189
United States,Staples, MN,46.3693405,10860,-94.8083256132718
United States,Willmar, MN,45.1219075,10861,-95.0433424
United States,Waikiki, HI,21.2793568,10867,-157.8285714
United States,New Milford, CT,41.5770993,10871,-73.4105803
United States,Victoria, TX,28.8297135,10872,-96.9725369222972
United States,Mansfield, CT,33.93295975,10873,-83.4350421404927
United States,Palo Alto, CA,37.442156,10877,-122.1634472
United States,Jeffersonville, IN,38.2776479,10878,-85.7371131
United States,Huntington Woods, MI,42.4805913,10884,-83.1668713
United States,Westborough, MA,42.2695644,10888,-71.6472319
United States,Flint, MI,43.0171773,10898,-83.7236024
United States,Carson City, NV,39.1637984,10899,-119.7674034
United States,Pontotoc, MS,34.2114655,10905,-89.0382651
United States,Scotch Plains, NJ,40.65538,10911,-74.3898732
United States,Crete, NE,40.6252173,10914,-96.9615141
United States,Aurora, CO,39.729432,10918,-104.8319196
United States,Laurel, MD,39.0992752,10920,-76.8483061
United States,Belton, SC,34.5228881,10932,-82.4942948
United States,Great Falls, MT,47.5048851,10938,-111.2918908
United States,Queen Creek, AZ,33.221613,10944,-111.585518685075
United States,Hickory, NC,35.7331895,10946,-81.3412006
United States,Surprise, AZ,33.6305932,10951,-112.3332129
United States,Beaumont, TX,30.0860459,10953,-94.1018461
United States,Richfield, MN,44.8766431,10956,-93.2877877
United States,Farmington, NM,36.7304288,10959,-108.2089191
United States,Buffalo, MN,45.1719084,10960,-93.8746941
United States,Seaside, OR,45.993246,10961,-123.920213
United States,Tooele, UT,40.5307776,10963,-112.29828
United States,Newark, DE,39.6852191,10970,-75.7508289
United States,Langley, WA,48.0399806,10974,-122.4094051
United States,Milford, PA,39.9531338,10981,-79.1041947
United States,Passaic, NJ,40.8567663,10982,-74.1284764
United States,Allston, MA,42.3554344,10988,-71.1321271
United States,Seward, AK,60.119514,10990,-149.414953527434
United States,Camden, NJ,39.9448436,10992,-75.1198694
United States,New Braunfels, TX,29.7026173,11067,-98.1256263
United States,Northfield, MN,44.4582041,11087,-93.161159
United States,West Chazy, NY,44.8205957,11090,-73.5070812
United States,Houston, MO,37.3261588,11101,-91.955988
United States,Highland, IL,38.7394918,11103,-89.6712008
United States,Rocky Point, NY,44.7225426,11104,-73.4118006
United States,Elkhart, IN,41.6819935,11110,-85.9766671
United States,Valdosta, GA,30.8327022,11114,-83.2784851
United States,Canton, OH,40.7989522,11117,-81.3784445
United States,Cutler Bay, FL,25.5783,11123,-80.3377
United States,Fairbanks, AK,64.8377802,11127,-147.7163952
United States,Macon, MO,39.7422561,11138,-92.4726859
United States,Cupertino, CA,37.3230107,11143,-122.0322519
United States,Franklin, TN,36.9911656,11149,-79.8839701
United States,Traverse City, MI,44.7606441,11151,-85.6165301
United States,Gillette, WY,44.2906347,11158,-105.5018759
United States,Eureka, CA,40.7851725,11162,-124.166555366102
United States,Scottsville, KY,36.7533781,11166,-86.1905424
United States,Moncks Corner, SC,33.1960027,11170,-80.0131374
United States,Millington, MI,43.2814133,11173,-83.5296774
United States,North Charleston, SC,32.8546197,11174,-79.9748103
United States,Brandon, VT,43.7981195,11176,-73.087612
United States,Lakeland, FL,28.0394654,11186,-81.9498042
United States,Shawnee, OK,35.3272928,11188,-96.9253004
United States,Boca Raton, FL,26.3586885,11189,-80.0830984
United States,Folkston, GA,30.8305102,11191,-82.0098375
United States,East Lansing, MI,42.7355416,11196,-84.4852469
United States,Santa Rosa Beach, FL,30.3960324,11198,-86.2288322
United States,Belleville, IL,38.5200504,11200,-89.9839935
United States,Kodiak, AK,57.79,11204,-152.4072222
United States,Holly Springs, NC,35.3456701,11208,-82.6023453
United States,Coachella, CA,33.6795519,11210,-116.176338
United States,Logan, UT,41.7313447,11211,-111.8348631
United States,Seven Points, TX,32.3204226,11214,-96.2130315
United States,Waldorf, MD,38.6245628,11225,-76.9391395
United States,New Smyrna Beach, FL,29.0258191,11229,-80.9269984
United States,Burlington, KY,39.0220835,11241,-84.7202308876138
United States,Mount Shasta, CA,41.3187635,11242,-122.311732600602
United States,Clay County, WV,38.4460004,11256,-81.0718148
United States,Oceanside, CA,33.1958696,11257,-117.3794834
United States,Cabot, AR,34.979881,11261,-92.0191981393158
United States,Tustin, CA,33.7458511,11263,-117.826166
United States,Hamilton, OH,39.3995067,11265,-84.5613428
United States,Grand Junction, CO,39.063956,11266,-108.5507317
United States,Hoboken, NJ,40.7433066,11268,-74.0323752
United States,Merced, CA,37.3029568,11272,-120.4843269
United States,Chandler, AZ,33.3066739,11273,-111.8408605
United States,East Chicago, IN,41.6115994,11275,-87.4789636
United States,Waynesboro, PA,40.095096,11276,-76.5171885
United States,Kingsport, TN,36.4905785,11278,-82.5133662278364
United States,Highlands, NC,35.9476473,11281,-79.0852823
United States,Taos, NM,36.4072485,11282,-105.5730665
United States,Wixom, MI,42.5247729,11288,-83.5363339
United States,Coos Bay, OR,43.3665007,11292,-124.2178903
United States,Laredo, TX,27.5060991,11295,-99.5088979
United States,Buffalo Grove, IL,42.1514146,11311,-87.959794
United States,Spartanburg, SC,34.9498007,11312,-81.9320157
United States,Western Grove, AR,36.1009071,11315,-92.9537828
United States,Franklin Park, IL,41.9353084,11319,-87.865618
United States,Kinston, NC,35.2626635,11324,-77.5816353
United States,Salisbury, MD,38.3662114,11326,-75.6008881
United States,Maryville, MO,40.3461017,11331,-94.8724707
United States,Gloucester, MA,37.4452288,11342,-76.5594479
United States,Troy, AL,31.8072415,11343,-85.9579116997123
United States,Topsham, ME,43.9275797,11348,-69.9758839
United States,Waterbury, CT,41.5581525,11350,-73.0514966
United States,Hermiston, OR,45.8404101,11356,-119.2894605
United States,Farmville, VA,32.6659659,11360,-85.4899497
United States,Lockport, IL,41.5894753,11362,-88.057837
United States,Wauwatosa, WI,43.0494122,11364,-88.0079271
United States,Jackson, NJ,40.1151766,11367,-74.3647772
United States,Martinez, CA,33.5628041,11370,-116.1530603
United States,Queensbury, NY,43.3618532,11372,-73.6652451
United States,Cornelius, NC,35.4868032,11378,-80.8600736
United States,O'Fallon, IL,38.5922715,11380,-89.9112124
United States,Kissimmee, FL,28.2920249,11389,-81.4078013
United States,Toccoa Falls, GA,34.593709,11390,-83.3582195
United States,Downingtown, PA,40.0021426,11393,-75.7107618
United States,Marathon, FL,24.7137524,11394,-81.0903512
United States,New Windsor, NY,41.4767605,11396,-74.0237519
United States,Allen, TX,33.1031744,11400,-96.6705503
United States,Cranford, NJ,40.6554979,11401,-74.3028539
United States,Canton, MA,42.1584324,11406,-71.1447732
United States,Somerset, NJ,40.5012385,11413,-74.485477385179
United States,Yucca Valley, CA,34.14154,11414,-116.413654309413
United States,Glendora, CA,34.1361187,11415,-117.865339
United States,Walnut, CA,34.0202894,11417,-117.8653386
United States,Seymour, CT,44.513986,11418,-88.0292159
United States,The Villages, FL,28.7311059,11422,-81.6011849
United States,Hoosick Falls, NY,42.9011892,11426,-73.3515001
United States,Mentor, OH,41.6661573,11434,-81.339552
United States,Bloomington, IL,40.4731073,11437,-88.9941403
United States,Moab, UT,38.5738096,11438,-109.5462146
United States,Kingston, NY,41.9287812,11457,-74.0023702
United States,Mission Viejo, CA,33.5965685,11468,-117.659405
United States,Farmington Hills, MI,42.4853125,11476,-83.3771553
United States,Argos, IN,33.52222,11479,-117.691577
United States,Troy, NY,42.7284117,11480,-73.6917851
United States,Fairview, OR,45.5469302,11491,-122.437039205838
United States,Albrightsville, PA,41.0145319,11504,-75.6010222
United States,Cape Girardeau, MO,37.3058839,11518,-89.5181476
United States,Temecula, CA,33.4946353,11519,-117.1473661
United States,Beeville, TX,28.4099405,11520,-97.7480087209797
United States,Brownsville, TX,25.9140256,11521,-97.4890856
United States,Marble Falls, TX,30.586007,11524,-98.2675985235178
United States,Massapequa Park, NY,40.6778025,11525,-73.4544847
United States,Westerville, OH,40.1261743,11526,-82.9290696
United States,Houghton, MI,47.1218715,11527,-88.5690118
United States,Woodstock, IL,42.3149592,11528,-88.4475375
United States,DeKalb, IL,41.9294736,11530,-88.7503647
United States,Burlington, IA,40.8075391,11531,-91.1129234
United States,Redwood Falls, MN,44.5393721,11535,-95.1164478
United States,Montevallo, AL,33.1006746,11540,-86.8641558
United States,Beloit, WI,42.5083272,11541,-89.031784
United States,Ardmore, OK,34.1742611,11545,-97.1436254
United States,Alpharetta, GA,34.0709576,11549,-84.2747329
United States,La Mesa, CA,32.7678288,11551,-117.0230839
United States,Watsonville, CA,36.9529895,11553,-121.769608844958
United States,Mullica Hill, NJ,39.7392804,11560,-75.2240718
United States,Westport, CT,41.1414855,11561,-73.3578955
United States,Seaside Heights, NJ,39.9469035,11562,-74.072622
United States,Desert Hot Springs, CA,33.961124,11563,-116.5016784
United States,Woonsocket, RI,42.0028761,11564,-71.5147839
United States,Lewiston, ID,46.4165506,11565,-117.0176569
United States,Ravenswood, WV,38.9483268,11566,-81.7609912
United States,Isla Vista, CA,48.436056,11567,-114.3805441
United States,Holderness, NH,43.7320175,11570,-71.5884095
United States,Bear, DE,39.6292788,11571,-75.6582628
United States,Durant, OK,33.9939861,11573,-96.370824
United States,Sumter, SC,33.9204354,11574,-80.3414693
United States,Harrington Park, NJ,40.9837089,11577,-73.9798601
United States,Valley Center, CA,33.2183701,11578,-117.0341967
United States,Troy, MI,42.6055893,11579,-83.1499304
United States,Loveland, CO,40.3977612,11588,-105.0749801
United States,Arlington Heights, IL,27.835024,11613,-97.566661
United States,Cary, NC,30.4627376,11614,-81.78427
United States,Apopka, FL,28.6779604,11617,-81.5115241
United States,Clearfield, PA,41.1134756,11619,-112.0244382
United States,Woodbine, GA,30.9638429,11626,-81.7226063
United States,Marina, CA,36.6900785,11628,-121.800639730262
United States,American Canyon, CA,38.223457,11631,-122.227042971235
United States,Sanford, NC,35.4798757,11633,-79.1802994
United States,Middletown, CT,39.39813,11646,-75.6847803
United States,West Deptford, NJ,39.8318378,11649,-75.1895576
United States,Turlock, CA,37.5021206,11656,-120.846064650786
United States,Willingboro, NJ,40.0278894,11659,-74.8690542
United States,Alexandria, MN,45.8852397,11671,-95.3775379
United States,Bedminster Township, NJ,40.672849,11679,-74.6776956696782
United States,Astoria, NY,40.7720145,11680,-73.9302673
United States,Novi, MI,42.48059,11685,-83.4754913
United States,Torrington, CT,37.5800421,11692,-122.0353035
United States,Spring Lake, NJ,47.6424481,11713,-93.8679869
United States,Douglas, GA,33.6952248,11715,-84.7654424
United States,Henderson, NV,36.0391456,11719,-114.9819235
United States,Andover, MA,42.6582997,11724,-71.1445046
United States,Luverne, AL,31.7165455,11725,-86.2638492
United States,Bourbonnais, IL,41.1639309,11736,-87.8839693
United States,Saint Charles, MO,38.783194,11748,-90.4823681
United States,Eau Claire, WI,44.811349,11755,-91.4984941
United States,Great Barrington, MA,42.20767315,11761,-73.3491862093459
United States,Seminole, FL,30.4790868,11762,-86.4099478
United States,Webster, NY,43.2122851,11765,-77.4299939
United States,Corcoran, CA,36.120084,11777,-119.563801399957
United States,Proctor, MN,46.7471638,11785,-92.2254695
United States,Clarksville, TN,36.5285918,11786,-87.3098696
United States,Rocky Hill, CT,41.6648216,11788,-72.6392587
United States,West Hollywood, CA,34.0900091,11790,-118.3617443
United States,Hazel Park, MI,42.4620142,11792,-83.1035688
United States,Southfield, MI,42.4733689,11793,-83.2218731
United States,Pontiac, MI,42.6389216,11794,-83.2910468
United States,Lompoc, CA,34.6391501,11799,-120.4579409
United States,Newport, OR,44.6367548,11802,-124.053442
United States,Schaumburg, IL,41.9891458,11804,-88.1179527
United States,Schererville, IN,41.4789246,11805,-87.4547605
United States,Palmer, AK,61.5980802,11807,-149.1099674
United States,Delray Beach, FL,26.4614625,11808,-80.0728201
United States,Poughkeepsie, NY,41.7065779,11816,-73.9284101
United States,Massapequa, NY,40.6769664,11817,-73.4682925
United States,Manalapan Township, NJ,40.2765855,11819,-74.3526359503142
United States,Fort Bragg, NC,35.1422775,11826,-78.9987277869195
United States,Ogden, UT,41.2230048,11833,-111.9738429
United States,Pasco, WA,46.2395793,11837,-119.1005657
United States,Saratoga, CA,37.2662575,11840,-122.025725958373
United States,Hollywood, FL,26.0121458,11843,-80.1676643
United States,Bethlehem, PA,40.6178915,11848,-75.3786521
United States,Lexington, NE,40.7808398,11849,-99.7415045
United States,Hilton, NY,43.2881161,11862,-77.7933423
United States,Boron, CA,35.0199035,11864,-117.668060165467
United States,Radcliff, KY,37.8403456,11870,-85.9491298
United States,Liberty, MO,39.2463496,11874,-94.4189375
United States,Barrington, IL,39.3548297,11881,-76.4680179
United States,Kent, WA,47.3826903,11883,-122.2270272
United States,Belmont, CA,37.5161415,11889,-122.297856057406
United States,Eldersburg, MD,39.4037147,11891,-76.9502567
United States,Sunny Isles Beach, FL,25.9506481,11894,-80.1228227
United States,Waccabuc, NY,41.300315,11898,-73.5761584
United States,Marion, VA,36.8348383,11900,-81.5148368
United States,Ducktown, TN,36.3359362,11903,-82.629041
United States,Garden Grove, CA,33.7746292,11910,-117.9463717
United States,Coalville, UT,40.9177251,11913,-111.3993634
United States,Whidbey Island, WA,48.2926003,11920,-122.6762818
United States,Oasis Springs,,33.799303,11922,-116.5402792
United States,Apple Valley, CA,34.5008311,11923,-117.1858759
United States,Huntington Park, CA,33.9816812,11924,-118.2250725
United States,San Rafael, CA,37.9735346,11933,-122.5310874
United States,Rocklin, CA,38.7907339,11940,-121.2357828
United States,Lindsay, OK,34.8347959,11941,-97.6025319
United States,Medford, NY,40.81730175,11942,-72.999305215537
United States,Wakefield-Peacedale, RI,41.437324,11958,-71.5014469
United States,Cle Elum, WA,47.195707,11962,-120.952548872103
United States,Grafton, WI,43.3197265,11971,-87.9534226
United States,DeLand, FL,29.0283213,11972,-81.3031098
United States,Ketchikan, AK,55.3430696,11973,-131.6466819
United States,Clovis,  NM,34.405472,11974,-103.2050709
United States,Fairfield, CT,41.1412078,11975,-73.2637258
United States,Leesville, LA,31.1435194,11981,-93.260998
United States,Concord, NC,35.4087517,11983,-80.579511
United States,Moultrie, GA,31.1811523,11986,-83.7878809
United States,Crookston, MN,47.7741383,11987,-96.6081212
United States,White Plains, NY,41.0339862,11988,-73.7629097
United States,San Mateo, CA,37.5446217,11992,-122.3091165
United States,Sequim, WA,48.0849312,11995,-123.1096706
United States,Mill Spring, NC,35.2976655,12010,-82.1610172
United States,Woodward,OK,36.374499,12012,-99.2455382
United States,Niles, MI,41.8297694,12014,-86.2541768
United States,Millinocket, ME,45.6572724,12017,-68.709758
United States,Chesilhurst, NJ,39.7323384,12025,-74.8809966
United States,Coral Springs, FL,26.271192,12027,-80.2706044
United States,Vero Beach, FL,27.6387163,12028,-80.3975399
United States,Minot, ND,48.2325095,12029,-101.2962732
United States,Brenham, TX,30.1668828,12053,-96.3977442
United States,Hyattsville, MD,38.95325,12054,-76.9408522
United States,Williston, ND,48.1476108,12055,-103.6181384
United States,Pinconning, MI,43.8536325,12056,-83.964987
United States,Lisle, IL,38.5494574,12065,-94.594677
United States,Tuscumbia, AL,34.7312005,12068,-87.70253
United States,Stroudsburg, PA,40.9867609,12074,-75.1946248
United States,Sebring, FL,27.4965001,12078,-81.4343582
United States,Sterling Heights, MI,42.5803122,12084,-83.0302033
United States,Crestview, FL,30.7621326,12086,-86.5705084
United States,Harper Woods, MI,42.4330924,12087,-82.9240833
United States,Lathrop, CA,37.8227046,12095,-121.27661
United States,Livingston, TX,30.711029,12103,-94.9329898
United States,Port Jefferson Station, NY,40.9253764,12106,-73.0473284
United States,Winter Haven, FL,28.0222435,12112,-81.7328568
United States,Temple, TX,31.098207,12116,-97.3427847
United States,Stone Mountain, GA,33.8052722,12118,-84.1697881166779
United States,Batavia, OH,39.0770072,12125,-84.1768795
United States,Edgewood, NM,35.0614358,12130,-106.1914141
United States,Bodega Bay, CA,38.33325,12132,-123.0480571
United States,Macomb, MI,40.4589814,12133,-90.6709814
United States,Gonzales, LA,29.5016257,12147,-97.4524926
United States,Cookeville, TN,36.162839,12164,-85.5016423
United States,Rocky Mount, NC,35.9382104,12165,-77.7905341
United States,Pisgah, AL,34.8898095,12172,-86.8172238
United States,Wooster, OH,40.8050565,12176,-81.935143
United States,South Hadley, MA,42.2584245,12177,-72.5745332
United States,Zurich, MT,48.5844436,12189,-109.0304432
United States,Polson, MT,47.6905295,12190,-114.1637614
United States,Germantown, TN,35.0867577,12192,-89.8100858
United States,Ukiah, CA,39.1501662,12194,-123.2077861
United States,Gilroy, CA,37.0065078,12196,-121.5631723
United States,Ballston, NY,45.0667828,12197,-123.3209383
United States,Edwardsville, IL,38.8114364,12210,-89.953157
United States,Derry, NH,42.8808677,12215,-71.3264492
United States,Selinsgrove, PA,40.8062437,12219,-76.8607084
United States,Torrance, CA,33.8358492,12225,-118.3406288
United States,Roseville, CA,38.7521235,12231,-121.2880059
United States,Sitka, AK,58.52,12234,-135.3376124
United States,Abingdon, MD,39.4623305,12245,-76.2791236
United States,Erlanger, KY,39.0167275,12255,-84.6007773
United States,Ridgefield, CT,41.2814842,12256,-73.4981792
United States,Falmouth, MA,41.5514979,12267,-70.6147519
United States,Caldwell, TX,30.5313152,12273,-96.6930303
United States,McLean, VA,38.92457385,12279,-77.2100140794278
United States,Peachtree City, GA,33.3967829,12288,-84.5957629
United States,Pasadena, CA,34.1476452,12291,-118.1444779
United States,Wayne, PA,40.0440149,12294,-75.3878616
United States,Medford, MA,42.418333,12296,-71.106667
United States,Bridgeton, NJ,39.427337,12303,-75.2340768
United States,Weston, CT,41.2011555,12313,-73.3805286
United States,Conroe, TX,30.20481805,12315,-95.4524089728367
United States,Briarwood,,38.2781258,12339,-85.5930164
United States,Ronkonkoma, NY,40.8153761,12341,-73.112333
United States,Pukalani, HI,20.8366667,12342,-156.3366667
United States,Dahlonega, GA,34.5261465,12343,-83.9843953
United States,Jackson, CA,38.3511995,12349,-120.7717719
United States,Durango, CO,37.27528,12357,-107.8800667
United States,Pinellas Park, FL,27.8428025,12366,-82.6995444
United States,New City, NY,41.1469917,12369,-73.9902998
United States,Columbus, IN,39.2014405,12371,-85.9213796
United States,Lebanon, OH,39.4353373,12372,-84.2029922
United States,Parma, OH,41.3822398,12378,-81.7355692
United States,Champaign, IL,40.1164205,12382,-88.2433829
United States,Oxford, MS,34.3664127,12397,-89.5187664
United States,Webb City, MO,37.1464475,12399,-94.4630035
United States,Davis, CA,34.1722874,12418,-117.5812832
United States,Kahului, HI,20.8893351,12419,-156.4729469
United States,Kailua, HI,21.4022222,12420,-157.7394444
United States,Makakilo, HI,21.3469444,12426,-158.0858333
United States,Pearl City, HI,21.3972222,12427,-157.9733333
United States,Santa Clara, CA,37.3541132,12428,-121.9551744
United States,Waipahu, HI,21.3866667,12429,-158.0091667
United States,Hampton, VA,37.0300969,12431,-76.3452057
United States,Dover, DE,39.158168,12441,-75.5243682
United States,South Bend, IN,41.6833813,12442,-86.2500066
United States,Lewisburg, PA,40.9645293,12452,-76.8844101
United States,Redwood City, CA,37.4852152,12455,-122.2363548
United States,Napa, CA,38.2891775,12456,-122.293706268451
United States,Twin Falls, ID,42.5629668,12460,-114.4608711
United States,Burley, ID,42.5357428,12461,-113.7927948
United States,Rock Springs, WY,41.58746439999999,12467,-109.2029043
United States,El Centro, CA,32.792,12469,-115.5630514
United States,Cherokee Village, AR,36.2978443,12474,-91.515973
United States,Groton, CT,41.3497456,12478,-72.0790717
United States,Waterford, MI,42.6907443,12487,-83.4066132
United States,Yale, MI,43.130026,12492,-82.7982634
United States,Elko, NV,40.8324211,12495,-115.7631232
United States,Ankeny, IA,41.7317884,12497,-93.6001278
United States,Somerville, MA,42.3875968,12505,-71.0994968
United States,Harrisonburg va,,38.4495688,12508,-78.8689155
United States,Kingman  Arizona,,35.189443,12510,-114.0530065
United States,Moses Lake,,47.1301417,12511,-119.2780771
United States,Vermillion, SD,42.7794417,12513,-96.9292104
United States,Duluth, GA,34.0028786,12514,-84.1446376
United States,Dover, NH,43.1978624,12515,-70.8736698
United States,Sterling,,39.0066993,12517,-77.4291298
United States,North Brunswick, NJ,40.4525163,12519,-74.4766712
United States,Livermore, CA,37.6818745,12521,-121.7680088
United States,Blacksburg, VA,37.2295733,12522,-80.4139393
United States,Libby, MT,48.38828609999999,12523,-115.5559988
United States,Bellevue, NE,41.1543623,12524,-95.9145568
United States,Springfield, OR,44.0462362,12525,-123.0220289
United States,Peekskill, NY,41.2900939,12526,-73.9204158
United States,Brunswick, ME,43.9140162,12527,-69.9669961
United States,Frisco, TX,33.1506744,12528,-96.82361159999999
United States,Holland, MI,42.7875235,12529,-86.1089301
United States,Suwanee, GA,34.0514898,12531,-84.0712997
United States,Danbury, CT,41.394817,12532,-73.4540111
United States,Enterprise, Al,31.3151708,12533,-85.85521609999999
United States,Ellsworth, ME,44.5434095,12534,-68.4194641
United States,Hamburg, PA,40.5556484,12535,-75.98187720000001
United States,Livonia, MI,42.36837,12536,-83.35270969999999
United States,Lewis Center, OH,40.1983884,12537,-83.0100987
United States,Sheldon, IA,43.1812107,12538,-95.8569539
United States,Elkins, WV,38.92593970000001,12539,-79.8467349
United States,Encinitas, CA,33.0369867,12540,-117.2919818
United States,Ford City, PA,40.7722865,12541,-79.5297673
United States,Galveston, TX,29.3013479,12542,-94.7976958
United States,Canton,,40.7989522,12543,-81.3784445
United States,Buckhead, GA,33.8372663,12544,-84.406761
United States,Avon, CO,39.6330673,12546,-106.5222196
United States,Astoria, OR,46.1878841,12547,-123.8312534
United States,Solon, OH,41.3897764,12548,-81.44122589999999
United States,Murrieta, CA,33.5539143,12550,-117.2139232
United States,Juneau, AK,58.3019444,12551,-134.4197222
United States,Eden Prairie, MN,44.8546856,12552,-93.47078599999999
United States,Carmel By The Sea, CA,36.5552386,12553,-121.9232879
United States,Muskogee, OK,35.7478769,12556,-95.3696909
United States,East Northport, NY,40.8767647,12557,-73.3245613
United States,Waynesboro, VA,38.0684692,12558,-78.8894682
United States,Frederick, MD,39.41426879999999,12560,-77.4105409
United States,Los Gatos, CA,37.2358078,12562,-121.9623751
United States,Yukon, OK,35.5067215,12563,-97.76254410000001
United States,La Porte, IN,41.611143,12564,-86.7227195
United States,Fort Walton Beach, FL,30.42007079999999,12566,-86.6170308
United States,Warren, MI,42.5144566,12570,-83.01465259999999
United States,Big Rapids, MI,43.6980782,12573,-85.4836557
United States,South Riding, VA,38.9209446,12574,-77.5038795
United States,Chantilly, VA,38.8942786,12575,-77.43109919999999
United States,Fort Smith, AR,35.3859242,12577,-94.39854749999999
United States,Sand Point, AK,55.3397222,12584,-160.4972222
United States,Eliot, ME,43.1531427,12588,-70.8000544
United States,Woodinville, WA,47.7542651,12594,-122.1634582
United States,Clayton, MO,38.6425518,12598,-90.32372629999999
United States,Denton, TX,33.2148412,12599,-97.13306829999999
United States,Oak Park, IL,41.8850317,12601,-87.7845025
United States,Rochester, IL,39.7494943,12604,-89.53176030000002
United States,Sedalia, MO,38.7044609,12611,-93.2282613
United States,New Rochelle, NY,40.9114882,12617,-73.7823549
United States,Alamogordo, NM,32.8995325,12625,-105.960265
United States,Cullman, AL,34.1748208,12628,-86.8436124
United States,Amherst, NY,42.9756133,12632,-78.7914222
United States,Doylestown, PA,40.3101063,12633,-75.1298939
United States,Hyannis, MA,41.6524911,12635,-70.2881124
United States,Poplarville, MS,30.8401863,12643,-89.53423149999999
United States,Willimantic, CT,41.7106543,12647,-72.2081338
United States,Kenyon, MN,44.2721868,12648,-92.985484
United States,Salem, IN,38.6056131,12653,-86.101089
United States,Meadville, PA,41.6414438,12654,-80.15144839999999
United States,Grapevine, TX,32.9342919,12655,-97.0780654
United States,Malvern, PA,,12659,
United States,Essex, CT,41.3503671,12666,-72.405239
United States,Lake View, IA,42.3116499,12670,-95.05332399999999
United States,Taylor, TX,42.240872,12671,-83.2696509
United States,Rock Hill, SC,34.9248667,12679,-81.02507840000001
United States,Claremore, OK,36.3125963,12685,-95.61609
United States,Athens, ME,44.92311420000001,12691,-69.67282960000001
United States,Kirksville, MO,40.19475389999999,12693,-92.5832496
United States,Kathleen, GA,32.4959812,12696,-83.607683
United States,Mound, MN,44.9366295,12700,-93.66607189999999
United States,Richboro, PA,40.2151086,12702,-75.0107245
United States,Hinesville, GA,31.846877,12724,-81.5959453
United States,Owosso, MI,42.9978049,12727,-84.1766358
United States,North Attleborough, MA,41.9695516,12728,-71.35654389999999
United States,Sioux City, IA,42.4999942,12730,-96.40030689999999
United States,Rice Lake, WI,45.5060682,12732,-91.738225
United States,Kaneohe, HI,21.3996475,12747,-157.7973653
United States,Bowling Green, OH,41.3747744,12757,-83.6513229
United States,Geneva, NY,42.8679836,12764,-76.985557
United States,Massena, NY,44.9281049,12765,-74.891865
United States,Fishkill, NY,41.53564919999999,12770,-73.89902520000001
United States,St. Charles, IL,41.9141945,12774,-88.3086867
United States,Twinsburg, OH,41.3125552,12775,-81.4401129
United States,Clarkton, MI,34.4873922,12779,-78.65612569999999
United States,Cape Canaveral, FL,28.3922182,12782,-80.60771319999999
United States,Longmont, CO,40.1672068,12784,-105.1019275
United States,Gaylord, MI,45.0275126,12789,-84.6747523
United States,Brainerd, MN,46.3526733,12795,-94.2020084
United States,Athens, IL,39.9608826,12796,-89.7239944
United States,Roseau, MN,48.8460926,12802,-95.762766
United States,Winnemucca, NV,40.9729584,12803,-117.7356849
United States,Barrow, AK,71.29055559999999,12829,-156.7886111
United States,Dublin, OH,37.7021521,12834,-121.9357918
United States,,,39.7662167,12842,-75.1441926
United States,Brattleboro, VT,42.8509152,12847,-72.5578678
United States,Redlands, CA,34.0555693,12848,-117.1825381
United States,Pendleton, OR,45.672075,12878,-118.7885967
United States,Pass Christian, MS,30.3157527,12879,-89.2475429
United States,Monument, CO,39.0916586,12880,-104.872758
United States,Beverly Hills, CA,34.0736204,12882,-118.4003563
United States,Lincoln, MO,38.3908555,12884,-93.3346497
United States,West New York, NJ,40.7878788,12888,-74.0143064
United States,Llano, TX,30.75934519999999,12889,-98.67503789999999
United States,Santa Maria, CA,34.9530337,12895,-120.4357191
United States,Kalispell, MT,48.1919889,12898,-114.3168131
United States,Del Rio, TX,29.3708857,12909,-100.8958674
United States,Texarkana, TX,33.425125,12910,-94.04768820000001
United States,Katy, TX,29.7857853,12911,-95.8243956
United States,Lomita, CA,33.7922392,12912,-118.3150722
United States,Manahawkin, NJ,39.695397,12916,-74.2587527
United States,Pueblo, CO,38.2544472,12919,-104.6091409
United States,Middletown, DE,39.449556,12920,-75.7163207
United States,Carlsbad, CA,33.1580933,12929,-117.3505939
United States,Mankato, MN,44.1635775,12931,-93.99939959999999
United States,Palatka, FL,29.6485801,12933,-81.6375819
United States,Agoura Hills, CA,34.1533395,12934,-118.7616764
United States,Monticello, UT,37.8713829,12935,-109.3428948
United States,Canaan, NH,43.6809381,12937,-72.0518883
United States,Lake Orion, MI,42.7844752,12945,-83.2396612
United States,Rogers City, MI,45.4214024,12951,-83.8183303
United States,Sun City Center, FL,27.718086,12952,-82.351759
United States,Strasburg, VA,38.9887199,12954,-78.358616
United States,Lewisburg, TN,35.4492404,12956,-86.7888887
United States,Alexandria, LA,31.3112936,12960,-92.4451371
United States,Coldwater, MI,41.9403263,12965,-85.00052149999999
United States,Chester, PA,39.849557,12975,-75.3557457
United States,Forest Park, GA,33.6220542,12976,-84.36909179999999
United States,Westminster, MD,39.5753791,12982,-76.9958149
United States,Lawrence, MA,42.7070354,12984,-71.1631137
United States,Forsyth, MT,46.2630502,12986,-106.6819793
United States,Freehold, NJ,40.2136754,12987,-74.3000878
United States,Marshall, MN,44.448423,12999,-95.79119159999999
United States,Perth Amboy, NJ,,13005,
United States,Grosse Pointe Woods, MI,42.4436478,13013,-82.90686029999999
United States,Gettysburg, PA,39.8309293,13019,-77.2310955
United States,Kings Park, NY,40.88620900000001,13020,-73.2573369
United States,Crown Point, IN,41.4169806,13026,-87.3653135
